,station,continent,period,country,id,name,lat,lng
0,GM000003342,Europa,1900-2015,GM,000003342,POTSDAM,52.3833,13.0639
1,GM000004063,Europa,1900-2015,GM,000004063,BAMBERG,49.8753,10.9217
2,GM000010147,Europa,1900-2015,GM,000010147,HAMBURG FUHLSBUETTEL,53.635,9.99
3,GM000010962,Europa,1900-2015,GM,000010962,HOHENPEISSENBERG,47.8017,11.0117
4,ASN00009917,Oceanía,1900-2015,AS,N00009917,PICKERING BROOK,-33.7058,115.7878
5,ASN00040978,Oceanía,1900-2015,AS,N00040978,BROOKSTEAD POST OFFICE,-27.0797,153.1803
6,ASN00066195,Oceanía,1900-2015,AS,N00066195,TERREY HILLS AWS,-33.8521,151.0646
7,ASN00086232,Oceanía,1900-2015,AS,N00086232,MALVERN EAST YALLAMBEE,-37.8303,144.9767
8,CA001018629,Norte América,1900-2015,CA,001018629,VICTORIA GONZALES HTS,48.4333,-123.3333
9,CA001163842,Norte América,1900-2015,CA,001163842,KAMLOOPS MISSION FLATS,50.7,-120.45
10,CA003012216,Norte América,1900-2015,CA,003012216,EDMONTON,53.3167,-113.5833
11,CA003031092,Norte América,1900-2015,CA,003031092,CALGARY INTL A,51.1167,-114.0167
12,CA004028040,Norte América,1900-2015,CA,004028040,SWIFT CURRENT,50.3,-107.6833
13,CA006106052,Norte América,1900-2015,CA,006106052,OTTAWA CITY HALL,45.4167,-75.7333
14,CA006158722,Norte América,1900-2015,CA,006158722,TORONTO VICTORIA,43.65,-79.5167
15,CA007027329,Norte América,1900-2015,CA,007027329,MONTREAL/PIERRE ELLIOTT TRUDE,45.5167,-73.4167
16,USC00016000,Norte América,1900-2015,US,C00016000,MARION 1 N,33.3264,-86.7561
17,USC00016226,Norte América,1900-2015,US,C00016226,LOGAN MARTIN DAM,34.7,-86.3333
18,USC00017671,Norte América,1900-2015,US,C00017671,PLEASANT GROVE SCHOOL,34.4,-86.0333
19,USC00018204,Norte América,1900-2015,US,C00018204,SELMA,32.9,-86.7333
20,USC00026320,Norte América,1900-2015,US,C00026320,PERKINSVILLE,34.2333,-111.3333
21,USC00041606,Norte América,1900-2015,US,C00041606,ALDERPOINT,41.1417,-123.1392
22,USC00042895,Norte América,1900-2015,US,C00042895,CORONA,34.1317,-117.5239
23,USC00045120,Norte América,1900-2015,US,C00045120,KNIGHTS FERRY 2 SE,36.9897,-120.9297
24,USC00046499,Norte América,1900-2015,US,C00046499,MIRANDA SPENGLER RCH,41.1833,-123.9167
25,USC00047516,Norte América,1900-2015,US,C00047516,QUINCY,38.8,-121.2333
26,USC00047755,Norte América,1900-2015,US,C00047755,REDWOOD CITY,37.0167,-121.3333
27,USC00047987,Norte América,1900-2015,US,C00047987,RAMONA,33.7869,-117.7217
28,USC00048490,Norte América,1900-2015,US,C00048490,SAINT HELENA,39.8778,-123.7275
29,USC00049677,Norte América,1900-2015,US,C00049677,TIGER CREEK PH,39.15,-122.15
30,USC00051528,Norte América,1900-2015,US,C00051528,ANTERO JUNCTION 3 NNE,39.2203,-105.2783
31,USC00081056,Norte América,1900-2015,US,C00081056,ARCADIA,28.6333,-82.3333
32,USC00083470,Norte América,1900-2015,US,C00083470,EUSTIS 2 S,30.2717,-82.1856
33,USC00088786,Norte América,1900-2015,US,C00088786,ROYAL PALM BEACH WEST,27.95,-82.45
34,USC00092493,Norte América,1900-2015,US,C00092493,CALHOUN EXP STN,34.77,-84.8872
35,USC00094138,Norte América,1900-2015,US,C00094138,GAINESVILLE,34.3389,-82.8342
36,USC00100347,Norte América,1900-2015,US,C00100347,ABERDEEN EXP STN,42.5031,-112.5758
37,USC00104442,Norte América,1900-2015,US,C00104442,GARDEN VALLEY,43.8383,-115.8319
38,USC00106375,Norte América,1900-2015,US,C00106375,MOBES CREEK SUMMIT,43.6333,-115.8
39,USC00111836,Norte América,1900-2015,US,C00111836,CARLINVILLE,40.6211,-89.2414
40,USC00112150,Norte América,1900-2015,US,C00112150,CASEY,40.1333,-87.65
41,USC00113262,Norte América,1900-2015,US,C00113262,FORRESTON,42.2972,-89.6039
42,USC00115314,Norte América,1900-2015,US,C00115314,JOLIET BRANDON RD DAM,41.4589,-87.9106
43,USC00115856,Norte América,1900-2015,US,C00115856,MENDOTA 2 SE,41.2333,-89.6667
44,USC00118690,Norte América,1900-2015,US,C00118690,SULLIVAN,39.8,-88.2794
45,USC00124667,Norte América,1900-2015,US,C00124667,KEWANNA 7 NW,40.4614,-86.2122
46,USC00126710,Norte América,1900-2015,US,C00126710,OOLITIC PURDUE EX FRM,38.5333,-86.4833
47,USC00127069,Norte América,1900-2015,US,C00127069,OSGOOD,40.4175,-84.9925
48,USC00127768,Norte América,1900-2015,US,C00127768,ROME,38.6167,-86.0333
49,USC00128996,Norte América,1900-2015,US,C00128996,THAYER,41.4667,-87.0667
50,USC00129113,Norte América,1900-2015,US,C00129113,VINCENNES 4 E,38.7386,-87.4878
51,USC00130133,Norte América,1900-2015,US,C00130133,AKRON,43.0683,-94.3053
52,USC00130385,Norte América,1900-2015,US,C00130385,ACKWORTH 2 SW,41.7069,-94.9222
53,USC00130513,Norte América,1900-2015,US,C00130513,ALBIA 3 NNE,41.8167,-93.1333
54,USC00130940,Norte América,1900-2015,US,C00130940,BELMOND,42.8078,-96.2692
55,USC00131394,Norte América,1900-2015,US,C00131394,BROOKLYN,41.0164,-93.2792
56,USC00131848,Norte América,1900-2015,US,C00131848,CARSON 3NNE,40.75,-93.4833
57,USC00132364,Norte América,1900-2015,US,C00132364,CRESCO 1 NE,42.54,-90.6461
58,USC00133107,Norte América,1900-2015,US,C00133107,EMMETSBURG,42.5,-95.5
59,USC00133509,Norte América,1900-2015,US,C00133509,GLENWOOD,41.6686,-94.4972
60,USC00134389,Norte América,1900-2015,US,C00134389,GRINNELL 3 SW,40.7275,-91.9683
61,USC00134867,Norte América,1900-2015,US,C00134867,LAMONI,41.8167,-96.0167
62,USC00135203,Norte América,1900-2015,US,C00135203,LANSING,42.0656,-92.9081
63,USC00135732,Norte América,1900-2015,US,C00135732,LOWDEN,41.75,-91.4333
64,USC00136103,Norte América,1900-2015,US,C00136103,NASHUA 2 NW,43.4386,-93.2253
65,USC00136975,Norte América,1900-2015,US,C00136975,POCAHONTAS,42.8169,-95.9711
66,USC00137709,Norte América,1900-2015,US,C00137709,SANBORN,42.4028,-96.3581
67,USC00138266,Norte América,1900-2015,US,C00138266,SIGOURNEY,41.7797,-91.1269
68,USC00138705,Norte América,1900-2015,US,C00138705,TRIPOLI,42.5006,-92.3319
69,USC00143072,Norte América,1900-2015,US,C00143072,FT SCOTT,37.5,-94.85
70,USC00143847,Norte América,1900-2015,US,C00143847,GOESSEL 2 NW,38.1042,-98.6592
71,USC00143989,Norte América,1900-2015,US,C00143989,HAVANA,37.9167,-95.4
72,USC00144735,Norte América,1900-2015,US,C00144735,LACROSSE,38.5867,-97.6083
73,USC00144910,Norte América,1900-2015,US,C00144910,LA CYGNE 4ESE,38.6167,-95.6833
74,USC00153252,Norte América,1900-2015,US,C00153252,FORDS FERRY DAM 5O,37.6011,-85.9067
75,USC00157215,Norte América,1900-2015,US,C00157215,ROUGH RIVER LAKE,36.7458,-86.2258
76,USC00161894,Norte América,1900-2015,US,C00161894,BRUSLY 2 W,30.8833,-91.0167
77,USC00167905,Norte América,1900-2015,US,C00167905,PIONEER 6 W,31.6833,-93.3
78,USC00173046,Norte América,1900-2015,US,C00173046,CORINNA,44.2203,-69.7889
79,USC00174569,Norte América,1900-2015,US,C00174569,KENNEBEC ARSENAL,44.1,-70.1667
80,USC00177250,Norte América,1900-2015,US,C00177250,NORTH ANDOVER,44.1,-69.1167
81,USC00188003,Norte América,1900-2015,US,C00188003,ROYAL OAK 2 SSW,38.42,-75.5642
82,USC00190840,Norte América,1900-2015,US,C00190840,ADAMS,41.9539,-70.9572
83,USC00193405,Norte América,1900-2015,US,C00193405,DORCHESTER,42.3333,-72.25
84,USC00194615,Norte América,1900-2015,US,C00194615,LAKE COCHITUATE,42.4167,-71.1167
85,USC00198918,Norte América,1900-2015,US,C00198918,TULLY LAKE,42.05,-71.8833
86,USC00200373,Norte América,1900-2015,US,C00200373,ADRIAN 2 NNE,43.1256,-82.6886
87,USC00200476,Norte América,1900-2015,US,C00200476,ADA,42.3167,-86.1167
88,USC00200925,Norte América,1900-2015,US,C00200925,AKRON 7 NW,45.1672,-84.9139
89,USC00202140,Norte América,1900-2015,US,C00202140,CANTON,42.6408,-84.6497
90,USC00203529,Norte América,1900-2015,US,C00203529,GAYLORD 9SSW,44.4633,-83.7217
91,USC00203576,Norte América,1900-2015,US,C00203576,GANGES,41.85,-86.6667
92,USC00203712,Norte América,1900-2015,US,C00203712,GOODRICH,42.4344,-83.9858
93,USC00204093,Norte América,1900-2015,US,C00204093,GREEN,46.0667,-88.6333
94,USC00205218,Norte América,1900-2015,US,C00205218,LEWISTON,43.3833,-83.2167
95,USC00206642,Norte América,1900-2015,US,C00206642,MUNITH 5 SW,42.3833,-83.4333
96,USC00210252,Norte América,1900-2015,US,C00210252,ADA,48.3311,-96.8253
97,USC00211935,Norte América,1900-2015,US,C00211935,ALBERT LEA 3 SE,44.9333,-93.5833
98,USC00213104,Norte América,1900-2015,US,C00213104,DALTON 3S,47.0792,-96.7758
99,USC00214937,Norte América,1900-2015,US,C00214937,KINBRAE,43.6658,-96.2022
100,USC00215603,Norte América,1900-2015,US,C00215603,LITTLE FALLS 2NNE,46.45,-92.7667
101,USC00215987,Norte América,1900-2015,US,C00215987,JORDAN 1SSW,44.4753,-93.1486
102,USC00216228,Norte América,1900-2015,US,C00216228,LONG PRAIRIE,46.2153,-96.1781
103,USC00218187,Norte América,1900-2015,US,C00218187,REMER,46.6333,-93.1333
104,USC00218808,Norte América,1900-2015,US,C00218808,ST FRANCIS 4 S,43.7467,-93.7367
105,USC00220290,Norte América,1900-2015,US,C00220290,ABBEVILLE,34.8492,-89.1597
106,USC00222094,Norte América,1900-2015,US,C00222094,CLINTON EXP STN,31.9461,-90.3775
107,USC00223645,Norte América,1900-2015,US,C00223645,GERMANIA,33.7608,-89.8136
108,USC00224816,Norte América,1900-2015,US,C00224816,IUKA,34.3044,-89.2564
109,USC00225384,Norte América,1900-2015,US,C00225384,KNOXVILLE TOWER,32.4333,-90.1333
110,USC00231037,Norte América,1900-2015,US,C00231037,ASHTON 1 W,39.4247,-93.1331
111,USC00234722,Norte América,1900-2015,US,C00234722,IBERIA,38.7833,-93.4
112,USC00235578,Norte América,1900-2015,US,C00235578,MARTINSBURG,40.2211,-93.1097
113,USC00235579,Norte América,1900-2015,US,C00235579,LAMAR 2W,36.6833,-93.8
114,USC00238051,Norte América,1900-2015,US,C00238051,ST. CATHARINE,39.9714,-91.8872
115,USC00242409,Norte América,1900-2015,US,C00242409,CONWAYS RCH,45.2128,-112.6447
116,USC00243389,Norte América,1900-2015,US,C00243389,DEEP CREEK PASS 2,46.7333,-109.5667
117,USC00244560,Norte América,1900-2015,US,C00244560,KALISPELL GLACIER AP,48.3094,-114.2522
118,USC00246470,Norte América,1900-2015,US,C00246470,OLSEN CREEK,46.3333,-113.3
119,USC00250622,Norte América,1900-2015,US,C00250622,ADAMS,40.2994,-96.75
120,USC00250810,Norte América,1900-2015,US,C00250810,ALMA,40.5283,-99.6353
121,USC00251825,Norte América,1900-2015,US,C00251825,CENTRAL CITY,41.4639,-97.3278
122,USC00252225,Norte América,1900-2015,US,C00252225,CHESTER,40.1378,-95.7786
123,USC00253900,Norte América,1900-2015,US,C00253900,GIBBON,40.3047,-100.01
124,USC00253923,Norte América,1900-2015,US,C00253923,FRIEND 3E,40.5833,-96.5833
125,USC00255287,Norte América,1900-2015,US,C00255287,LEBANON,40.6333,-100.75
126,USC00255960,Norte América,1900-2015,US,C00255960,NE NEBRASKA EXP STN,42.7472,-98.0467
127,USC00257040,Norte América,1900-2015,US,C00257040,RAVENNA,41.0319,-98.9214
128,USC00258050,Norte América,1900-2015,US,C00258050,SCHUYLER,41.65,-96.3333
129,USC00258365,Norte América,1900-2015,US,C00258365,SALEM,40.6167,-97.8333
130,USC00258935,Norte América,1900-2015,US,C00258935,VERDEL 6SSE,42.1506,-96.4756
131,USC00265155,Norte América,1900-2015,US,C00265155,LEETVILLE,39.0167,-117.1667
132,USC00281106,Norte América,1900-2015,US,C00281106,AUDUBON,39.8833,-75.1167
133,USC00282652,Norte América,1900-2015,US,C00282652,CRANFORD,40.6333,-74.2
134,USC00286146,Norte América,1900-2015,US,C00286146,MORRIS PLAINS 1 W,40.9611,-74.0158
135,USC00293530,Norte América,1900-2015,US,C00293530,FAYWOOD,33.1975,-108.2075
136,USC00298072,Norte América,1900-2015,US,C00298072,RED RIVER,35.6833,-105.9
137,USC00298872,Norte América,1900-2015,US,C00298872,STATE UNIV,32.6431,-105.6933
138,USC00300093,Norte América,1900-2015,US,C00300093,ADDISON,42.1003,-78.7497
139,USC00301152,Norte América,1900-2015,US,C00301152,BOLIVAR,42.8453,-77.2808
140,USC00301728,Norte América,1900-2015,US,C00301728,CAYUGA LOCK #1,43.25,-76.0
141,USC00302302,Norte América,1900-2015,US,C00302302,DELHI 2 SE,42.2833,-74.9167
142,USC00303508,Norte América,1900-2015,US,C00303508,FT PLAIN,43.2242,-75.3997
143,USC00304957,Norte América,1900-2015,US,C00304957,LAWRENCEVILLE 3 SW,43.95,-76.1167
144,USC00306028,Norte América,1900-2015,US,C00306028,MONGAUP VALLEY 4 SSW,43.1833,-76.8833
145,USC00306164,Norte América,1900-2015,US,C00306164,NEHASANE,44.7281,-75.4442
146,USC00311423,Norte América,1900-2015,US,C00311423,CANDOR,35.2667,-79.6833
147,USC00316122,Norte América,1900-2015,US,C00316122,MOCKSVILLE 5SE,35.6808,-78.9158
148,USC00317165,Norte América,1900-2015,US,C00317165,PINEHURST STHRN PINES,34.8122,-79.1622
149,USC00317508,Norte América,1900-2015,US,C00317508,PITTSBORO,35.7,-80.6167
150,USC00318370,Norte América,1900-2015,US,C00318370,SELMA,35.15,-76.7667
151,USC00323206,Norte América,1900-2015,US,C00323206,DICKINSON EXP STN,46.0917,-100.6286
152,USC00323926,Norte América,1900-2015,US,C00323926,FULLERTON 1 ESE,47.3111,-98.1856
153,USC00325610,Norte América,1900-2015,US,C00325610,LANGDON EXP FARM,47.8333,-100.1167
154,USC00325754,Norte América,1900-2015,US,C00325754,KULM,46.3911,-97.2392
155,USC00331474,Norte América,1900-2015,US,C00331474,BRILLIANT,40.5,-81.7833
156,USC00331779,Norte América,1900-2015,US,C00331779,BUCKEYE LAKE 1 N,39.8469,-82.9872
157,USC00333380,Norte América,1900-2015,US,C00333380,DEFIANCE PWR PLT,40.1,-84.6167
158,USC00333478,Norte América,1900-2015,US,C00333478,FAIRFIELD,39.4,-84.5833
159,USC00334363,Norte América,1900-2015,US,C00334363,KENTON OHIO PWR COMPA,40.5167,-83.8833
160,USC00336170,Norte América,1900-2015,US,C00336170,LAGRANGE 1 NE,41.5167,-83.3
161,USC00337400,Norte América,1900-2015,US,C00337400,ROCKFORD WATER DEPT,40.1394,-83.9289
162,USC00338020,Norte América,1900-2015,US,C00338020,RITTMAN,40.3667,-80.6167
163,USC00343295,Norte América,1900-2015,US,C00343295,EDMOND 5ESE,35.5667,-98.0333
164,USC00352493,Norte América,1900-2015,US,C00352493,DALLAS 2 NE,45.2761,-122.2019
165,USC00364047,Norte América,1900-2015,US,C00364047,FREDERICKSVILLE 2 SE,40.0881,-75.9081
166,USC00364992,Norte América,1900-2015,US,C00364992,KYLERTOWN,40.5864,-77.5692
167,USC00383742,Norte América,1900-2015,US,C00383742,DUE WEST,34.85,-82.35
168,USC00387683,Norte América,1900-2015,US,C00387683,MANNING,33.8089,-80.9019
169,USC00389327,Norte América,1900-2015,US,C00389327,WATEREE DAM,34.3706,-81.0825
170,USC00390107,Norte América,1900-2015,US,C00390107,ALCESTER 9 SE,42.95,-96.5167
171,USC00391452,Norte América,1900-2015,US,C00391452,ARLINGTON 1 W,44.6886,-97.8889
172,USC00392927,Norte América,1900-2015,US,C00392927,CRESBARD 8 NW,45.0364,-99.1342
173,USC00394037,Norte América,1900-2015,US,C00394037,FLANDREAU,44.0122,-97.5242
174,USC00395456,Norte América,1900-2015,US,C00395456,LEOLA,45.155,-98.5825
175,USC00396650,Norte América,1900-2015,US,C00396650,LYONS 5 SSW,43.7156,-98.4822
176,USC00401561,Norte América,1900-2015,US,C00401561,ALLARDT,36.5408,-85.4597
177,USC00405197,Norte América,1900-2015,US,C00405197,HILLSBORO,35.4667,-86.8
178,USC00417693,Norte América,1900-2015,US,C00417693,RED ROCK,29.5333,-96.5833
179,USC00423097,Norte América,1900-2015,US,C00423097,COTTONWOOD NURSERY,40.7242,-112.1975
180,USC00423391,Norte América,1900-2015,US,C00423391,CLEAR CREEK,39.35,-111.5167
181,USC00425402,Norte América,1900-2015,US,C00425402,LEVAN,39.2583,-111.6306
182,USC00426170,Norte América,1900-2015,US,C00426170,MILFORD,37.6667,-113.55
183,USC00427606,Norte América,1900-2015,US,C00427606,OGDEN 2,40.7708,-111.8964
184,USC00427835,Norte América,1900-2015,US,C00427835,ROUND VALLEY,39.9167,-112.1333
185,USC00450564,Norte América,1900-2015,US,C00450564,ANACORTES,48.7833,-122.4833
186,USC00451059,Norte América,1900-2015,US,C00451059,ASHFORD,47.4333,-121.65
187,USC00451276,Norte América,1900-2015,US,C00451276,ABERDEEN,46.72,-122.9528
188,USC00451426,Norte América,1900-2015,US,C00451426,CAMP CRESENT,48.0333,-120.8333
189,USC00457062,Norte América,1900-2015,US,C00457062,PULLMAN EXP STN,47.1167,-118.4167
190,USC00459077,Norte América,1900-2015,US,C00459077,TOLT 1 NW,47.3667,-120.3667
191,USC00464200,Norte América,1900-2015,US,C00464200,GLENVILLE,38.6844,-82.1836
192,USC00466178,Norte América,1900-2015,US,C00466178,LOST RVR,39.6667,-80.1
193,USC00466952,Norte América,1900-2015,US,C00466952,OMPS,38.9989,-79.1361
194,USC00469428,Norte América,1900-2015,US,C00469428,UPPER DAVISSON RUN,39.2,-80.4
195,USC00471790,Norte América,1900-2015,US,C00471790,BROOKFIELD,43.3261,-89.0081
196,USC00472041,Norte América,1900-2015,US,C00472041,CORNUCOPIA 3 E,45.2,-92.4
197,USC00472851,Norte América,1900-2015,US,C00472851,EASTON,44.6997,-87.3967
198,USC00475315,Norte América,1900-2015,US,C00475315,MARKESAN,43.2,-88.1667
199,USC00476200,Norte América,1900-2015,US,C00476200,NEW HOLSTEIN,43.1003,-88.5036
200,USC00477207,Norte América,1900-2015,US,C00477207,ROSIERE,43.85,-88.8167
201,USC00479053,Norte América,1900-2015,US,C00479053,WALWORTH CO SEWER DIST,43.4319,-88.1606
202,USW00004840,Norte América,1900-2015,US,W00004840,FOND DU LAC CO AP,43.77,-88.4864
203,USW00013752,Norte América,1900-2015,US,W00013752,ABERDEEN PHILLIPS FLD,38.9833,-76.4667
204,USW00013753,Norte América,1900-2015,US,W00013753,ATLANTIC CITY,39.45,-74.5833
205,USW00013782,Norte América,1900-2015,US,W00013782,CHARLESTON NAS,32.78,-79.9319
206,USW00013988,Norte América,1900-2015,US,W00013988,KANSAS CITY INTL AP,39.1208,-94.5969
207,USW00014857,Norte América,1900-2015,US,W00014857,MUSKEGON CO AP,44.7167,-85.55
208,USW00014936,Norte América,1900-2015,US,W00014936,HURON RGNL AP,44.3981,-98.2231
209,USW00023118,Norte América,1900-2015,US,W00023118,Summit Lk,39.6667,-119.8667
210,USW00024253,Norte América,1900-2015,US,W00024253,Mount Crag,47.2333,-123.1333
211,USW00053875,Norte América,1900-2015,US,W00053875,CHATTANOOGA LOVELL AP,35.0667,-85.3
212,USW00053904,Norte América,1900-2015,US,W00053904,SULLIVAN MISSOURI,38.9286,-90.4281
213,USW00093732,Norte América,1900-2015,US,W00093732,MITCHELL FLD,39.8,-72.6667
214,USW00093739,Norte América,1900-2015,US,W00093739,RICHMOND INTL AP,37.9406,-75.4631
215,USW00093832,Norte América,1900-2015,US,W00093832,JACKSONVILLE,30.2167,-81.8833
216,USW00094104,Norte América,1900-2015,US,W00094104,GALENA MONTANA,46.5833,-112.0333
217,USW00094701,Norte América,1900-2015,US,W00094701,AYER,42.35,-71.0667
0,BKM00014654,Europa,1950-2015,BK,M00014654,SARAJEVO,43.8667,18.4331
1,GM000003342,Europa,1950-2015,GM,000003342,POTSDAM,52.3833,13.0639
2,GM000004063,Europa,1950-2015,GM,000004063,BAMBERG,49.8753,10.9217
3,GM000010147,Europa,1950-2015,GM,000010147,HAMBURG FUHLSBUETTEL,53.635,9.99
4,GM000010393,Europa,1950-2015,GM,000010393,LINDENBERG,52.2094,14.1203
5,GM000010962,Europa,1950-2015,GM,000010962,HOHENPEISSENBERG,47.8017,11.0117
6,GME00102185,Europa,1950-2015,GM,E00102185,LIST/SYLT,55.0125,8.4125
7,GME00102244,Europa,1950-2015,GM,E00102244,HANNOVER,52.4656,9.6794
8,GME00102252,Europa,1950-2015,GM,E00102252,MAGDEBURG,52.1031,11.5842
9,GME00102308,Europa,1950-2015,GM,E00102308,GORLITZ,51.1631,14.9531
10,GME00102348,Europa,1950-2015,GM,E00102348,FICHTELBERG,50.4292,12.9553
11,GME00102364,Europa,1950-2015,GM,E00102364,HOF,50.3131,11.8775
12,GME00102396,Europa,1950-2015,GM,E00102396,AUGSBURG,48.4264,10.9431
13,GME00120934,Europa,1950-2015,GM,E00120934,FELDBERG/SCHWARZWALD,47.8756,8.0044
14,GME00120982,Europa,1950-2015,GM,E00120982,GIESSEN/WETTENBERG,50.6008,8.6506
15,GME00120994,Europa,1950-2015,GM,E00120994,ANGERMUNDE,53.0331,13.9931
16,GME00121018,Europa,1950-2015,GM,E00121018,ARKONA,54.6817,13.4367
17,GME00121102,Europa,1950-2015,GM,E00121102,NORDERNEY,53.7139,7.1525
18,GME00121114,Europa,1950-2015,GM,E00121114,OBERSTDORF,47.3989,10.2767
19,GME00121126,Europa,1950-2015,GM,E00121126,OHRINGEN,49.2081,9.5183
20,GMW00035032,Europa,1950-2015,GM,W00035032,RHEIN MAIN,50.0333,8.5833
21,NLM00006260,Europa,1950-2015,NL,M00006260,DE BILT-1,52.1014,5.1867
22,NLM00006310,Europa,1950-2015,NL,M00006310,VLISSINGEN,51.4414,3.5956
23,NLM00006380,Europa,1950-2015,NL,M00006380,MAASTRICHT,50.9053,5.7617
24,NO000001026,Europa,1950-2015,NO,000001026,TROMSO,69.6539,18.9281
25,NO000050540,Europa,1950-2015,NO,000050540,BERGEN FLORIDA,60.3831,5.3331
26,NOE00110447,Europa,1950-2015,NO,E00110447,KJEVIK,58.2003,8.0681
27,NOE00112071,Europa,1950-2015,NO,E00112071,VANG I VALDRES,63.5,10.89
28,NOM00001492,Europa,1950-2015,NO,M00001492,OSLO BLINDERN,59.9428,10.7206
29,SP000003195,Europa,1950-2015,SP,000003195,MADRID - RETIRO,40.4117,-3.6781
30,SPE00101043,Europa,1950-2015,SP,E00101043,ALICANTE,38.3725,0.4942
31,SPE00119711,Europa,1950-2015,SP,E00119711,A CORUNA,43.3669,-8.4192
32,SPE00120188,Europa,1950-2015,SP,E00120188,LOGRONO-AGONCILLO,42.4519,-2.3308
33,SPE00120287,Europa,1950-2015,SP,E00120287,MADRID/CUATROVIENTOS,40.3778,-3.7892
34,SPE00120458,Europa,1950-2015,SP,E00120458,STA. CRUZ DE TENERIFE,28.4631,-16.2553
35,SPE00120629,Europa,1950-2015,SP,E00120629,DAROCA,41.1144,-1.4106
36,SW000008525,Europa,1950-2015,SW,000008525,VISBY,58.4,15.5331
37,SW000010537,Europa,1950-2015,SW,000010537,HARNOSAND,60.6167,15.6167
38,SW000024180,Europa,1950-2015,SW,000024180,SAVE-SKALVISERED,59.35,13.4667
39,SWE00138024,Europa,1950-2015,SW,E00138024,VAEXJOE,57.26,12.32
40,ASN00003003,Oceanía,1950-2015,AS,N00003003,BROOME AIRPORT,-17.9475,122.2353
41,ASN00009917,Oceanía,1950-2015,AS,N00009917,PICKERING BROOK,-33.7058,115.7878
42,ASN00010073,Oceanía,1950-2015,AS,N00010073,KENDENUP,-31.6183,117.7217
43,ASN00012039,Oceanía,1950-2015,AS,N00012039,KALGOORLIE-BOULDER AIRPORT,-30.75,121.4667
44,ASN00014022,Oceanía,1950-2015,AS,N00014022,DARWIN AIRPORT COMPARISON,-12.8136,130.9875
45,ASN00015590,Oceanía,1950-2015,AS,N00015590,ALICE SPRINGS POST OFFICE,-23.7951,133.889
46,ASN00018042,Oceanía,1950-2015,AS,N00018042,CEDUNA (UWORRA),-31.9017,133.4217
47,ASN00023023,Oceanía,1950-2015,AS,N00023023,ADELAIDE (POORAKA),-34.7674,138.6434
48,ASN00023116,Oceanía,1950-2015,AS,N00023116,RENMARK,-34.817,138.6985
49,ASN00026021,Oceanía,1950-2015,AS,N00026021,MOUNT MCKENZIE (MT MCKENZIE),-37.7473,140.7739
50,ASN00031130,Oceanía,1950-2015,AS,N00031130,TREE HOUSE CREEK,-17.4383,145.7197
51,ASN00039250,Oceanía,1950-2015,AS,N00039250,ROCKLEY,-23.7464,150.6053
52,ASN00040080,Oceanía,1950-2015,AS,N00040080,GLENLYON DAM,-28.2619,153.0178
53,ASN00040978,Oceanía,1950-2015,AS,N00040978,BROOKSTEAD POST OFFICE,-27.0797,153.1803
54,ASN00066195,Oceanía,1950-2015,AS,N00066195,TERREY HILLS AWS,-33.8521,151.0646
55,ASN00074114,Oceanía,1950-2015,AS,N00074114,WAGGA WAGGA AGRICULTURAL INST,-35.1311,147.3091
56,ASN00076030,Oceanía,1950-2015,AS,N00076030,MERBEIN WEST,-34.3846,141.758
57,ASN00086232,Oceanía,1950-2015,AS,N00086232,MALVERN EAST YALLAMBEE,-37.8303,144.9767
58,CA001018629,Norte América,1950-2015,CA,001018629,VICTORIA GONZALES HTS,48.4333,-123.3333
59,CA001021990,Norte América,1950-2015,CA,001021990,CROFTON,49.6833,-125.0333
60,CA001026562,Norte América,1950-2015,CA,001026562,QUALICUM BEACH AIRPORT,49.3333,-124.4
61,CA001031844,Norte América,1950-2015,CA,001031844,COOMBS,49.8,-126.4167
62,CA001036210,Norte América,1950-2015,CA,001036210,PORT ALBERNI,49.25,-124.8
63,CA001100031,Norte América,1950-2015,CA,001100031,ADDENBROKE ISLAND,49.0333,-122.3667
64,CA001108462,Norte América,1950-2015,CA,001108462,VANCOUVER CENTRAL PARK,49.2167,-123.1333
65,CA001123980,Norte América,1950-2015,CA,001123980,KELOWNA BOWES STREET,49.8667,-119.4167
66,CA001126514,Norte América,1950-2015,CA,001126514,PRINCETON 8NE,49.5333,-120.4333
67,CA001128580,Norte América,1950-2015,CA,001128580,VERNON SOUTHWEST,50.2333,-119.2
68,CA001142164,Norte América,1950-2015,CA,001142164,CRESTON CAMPBELL SCIENTIFIC,49.1,-116.5333
69,CA001148705,Norte América,1950-2015,CA,001148705,WATCH LAKE NORTH,49.1167,-117.7333
70,CA001163842,Norte América,1950-2015,CA,001163842,KAMLOOPS MISSION FLATS,50.7,-120.45
71,CA001166946,Norte América,1950-2015,CA,001166946,SALMON ARM,50.7,-119.2833
72,CA002101310,Norte América,1950-2015,CA,002101310,WHITEHORSE,60.7333,-135.1
73,CA002204101,Norte América,1950-2015,CA,002204101,YELLOWKNIFE A,62.4667,-114.4333
74,CA002400600,Norte América,1950-2015,CA,002400600,BYRON BAY A,69.1,-105.1333
75,CA003012216,Norte América,1950-2015,CA,003012216,EDMONTON,53.3167,-113.5833
76,CA003031092,Norte América,1950-2015,CA,003031092,CALGARY INTL A,51.1167,-114.0167
77,CA004016673,Norte América,1950-2015,CA,004016673,REGINA CITY GREENHOUSES,50.5167,-104.5
78,CA004019080,Norte América,1950-2015,CA,004019080,YORKTON,51.2667,-102.4667
79,CA004028040,Norte América,1950-2015,CA,004028040,SWIFT CURRENT,50.3,-107.6833
80,CA005010481,Norte América,1950-2015,CA,005010481,BRANDON SOUTH,49.9167,-99.95
81,CA005023224,Norte América,1950-2015,CA,005023224,WINNIPEG SHERBROOK ST,49.9167,-97.2333
82,CA006106052,Norte América,1950-2015,CA,006106052,OTTAWA CITY HALL,45.4167,-75.7333
83,CA006110662,Norte América,1950-2015,CA,006110662,BEAVERTON,44.1167,-79.7667
84,CA006136626,Norte América,1950-2015,CA,006136626,PORT BURWELL RES STN 5,43.1833,-79.2667
85,CA006153194,Norte América,1950-2015,CA,006153194,HAMILTON PSYCH HOSPITAL,43.1667,-79.9333
86,CA006155877,Norte América,1950-2015,CA,006155877,ORONO,43.9333,-78.8667
87,CA006158722,Norte América,1950-2015,CA,006158722,TORONTO VICTORIA,43.65,-79.5167
88,CA007013642,Norte América,1950-2015,CA,007013642,LAC EDOUARD S,47.6667,-72.2667
89,CA007027110,Norte América,1950-2015,CA,007027110,STE GENEVIEVE,45.5167,-73.7833
90,CA007027329,Norte América,1950-2015,CA,007027329,MONTREAL/PIERRE ELLIOTT TRUDE,45.5167,-73.4167
91,CA007027390,Norte América,1950-2015,CA,007027390,ST JEROME,45.3,-73.2667
92,CA007028126,Norte América,1950-2015,CA,007028126,SHERBROOKE,45.4333,-71.6833
93,CA007051041,Norte América,1950-2015,CA,007051041,CAP ROUGE,49.1,-66.7
94,CA007054096,Norte América,1950-2015,CA,007054096,LA MALBAIE,47.35,-70.0333
95,CA00707DBDD,Norte América,1950-2015,CA,00707DBDD,LAC NICAUBA S,47.4,-72.7833
96,CA008202251,Norte América,1950-2015,CA,008202251,GREENWOOD A,44.8833,-63.5167
97,CA008202700,Norte América,1950-2015,CA,008202700,KEJIMKUJIK PARK,44.0833,-65.7667
98,CA008400700,Norte América,1950-2015,CA,008400700,BROWNSDALE,48.85,-56.8333
99,CA008401500,Norte América,1950-2015,CA,008401500,DANIELS HARBOUR,49.1667,-57.4333
100,CA008401705,Norte América,1950-2015,CA,008401705,GANDER BAY SOUTH,48.95,-54.5667
101,CA008403402,Norte América,1950-2015,CA,008403402,ST LAWRENCE,51.5,-55.8167
102,USC00010260,Norte América,1950-2015,US,C00010260,ADDISON,34.9092,-87.2747
103,USC00010422,Norte América,1950-2015,US,C00010422,ALEXANDER CITY,32.6,-85.5
104,USC00010764,Norte América,1950-2015,US,C00010764,AUTAUGAVILLE 3 N,33.3953,-87.0078
105,USC00011069,Norte América,1950-2015,US,C00011069,ANDALUSIA 3 W,31.5833,-86.2667
106,USC00011803,Norte América,1950-2015,US,C00011803,ATMORE,30.3875,-88.2269
107,USC00013620,Norte América,1950-2015,US,C00013620,DOUBLE SPRINGS,34.2314,-87.6353
108,USC00016000,Norte América,1950-2015,US,C00016000,MARION 1 N,33.3264,-86.7561
109,USC00016226,Norte América,1950-2015,US,C00016226,LOGAN MARTIN DAM,34.7,-86.3333
110,USC00017671,Norte América,1950-2015,US,C00017671,PLEASANT GROVE SCHOOL,34.4,-86.0333
111,USC00018204,Norte América,1950-2015,US,C00018204,SELMA,32.9,-86.7333
112,USC00020498,Norte América,1950-2015,US,C00020498,AMADO,33.0869,-111.2864
113,USC00021026,Norte América,1950-2015,US,C00021026,ALHAMBRA,33.3761,-112.5828
114,USC00021330,Norte América,1950-2015,US,C00021330,CANELO 1 NW,32.3222,-110.4147
115,USC00022782,Norte América,1950-2015,US,C00022782,CORDES,33.4192,-111.6444
116,USC00022797,Norte América,1950-2015,US,C00022797,DESTINY RANCH,31.7333,-110.5333
117,USC00023498,Norte América,1950-2015,US,C00023498,FORESTDALE,33.3833,-110.7833
118,USC00023586,Norte América,1950-2015,US,C00023586,FLAGSTAFF 4 SW,36.05,-112.1333
119,USC00023828,Norte América,1950-2015,US,C00023828,LAKE PLEASANT,34.7433,-111.4139
120,USC00025412,Norte América,1950-2015,US,C00025412,LAKESIDE RS,34.1142,-109.8589
121,USC00026119,Norte América,1950-2015,US,C00026119,MC NEAL,32.6025,-110.7344
122,USC00026320,Norte América,1950-2015,US,C00026320,PERKINSVILLE,34.2333,-111.3333
123,USC00026513,Norte América,1950-2015,US,C00026513,MARICOPA 4 N,32.6464,-111.4017
124,USC00027560,Norte América,1950-2015,US,C00027560,REDINGTON,32.2714,-109.2256
125,USC00027855,Norte América,1950-2015,US,C00027855,SAINT JOHNS,34.2639,-110.0075
126,USC00028499,Norte América,1950-2015,US,C00028499,TUZIGOOT NM,33.4258,-111.9217
127,USC00028800,Norte América,1950-2015,US,C00028800,STEPHENS RCH,32.25,-110.8333
128,USC00028805,Norte América,1950-2015,US,C00028805,THREE POINTS FIRE DEPT,32.25,-111.1667
129,USC00029005,Norte América,1950-2015,US,C00029005,SUNSET CRATER NATL MON,35.65,-112.2
130,USC00029464,Norte América,1950-2015,US,C00029464,WADDELL 3 SSE,33.7478,-112.5983
131,USC00040449,Norte América,1950-2015,US,C00040449,ASH MTN,36.9092,-119.0883
132,USC00041031,Norte América,1950-2015,US,C00041031,BENNETT RCH,33.4833,-116.8
133,USC00041170,Norte América,1950-2015,US,C00041170,ACAMPO 5NE,36.7667,-121.1833
134,USC00041497,Norte América,1950-2015,US,C00041497,ADIN RS,40.1706,-121.0886
135,USC00041602,Norte América,1950-2015,US,C00041602,ABBOTT MINE,38.5333,-123.1333
136,USC00041606,Norte América,1950-2015,US,C00041606,ALDERPOINT,41.1417,-123.1392
137,USC00042500,Norte América,1950-2015,US,C00042500,COHASSET,39.5633,-120.8239
138,USC00042598,Norte América,1950-2015,US,C00042598,DESERT CTR 2 NNE,33.8089,-115.4508
139,USC00042895,Norte América,1950-2015,US,C00042895,CORONA,34.1317,-117.5239
140,USC00043215,Norte América,1950-2015,US,C00043215,ELIZABETH LAKE,34.8272,-118.9653
141,USC00043256,Norte América,1950-2015,US,C00043256,DUDLEYS,36.7672,-119.7092
142,USC00044097,Norte América,1950-2015,US,C00044097,GRATON,39.0167,-123.0
143,USC00044227,Norte América,1950-2015,US,C00044227,HAYFIELD PUMPING PLT,32.9667,-115.1833
144,USC00044534,Norte América,1950-2015,US,C00044534,HORSE CANYON,36.0067,-119.96
145,USC00045026,Norte América,1950-2015,US,C00045026,LAKE ELEANOR,36.6044,-118.7325
146,USC00045112,Norte América,1950-2015,US,C00045112,IDYLLWILD,34.0667,-118.2333
147,USC00045120,Norte América,1950-2015,US,C00045120,KNIGHTS FERRY 2 SE,36.9897,-120.9297
148,USC00045623,Norte América,1950-2015,US,C00045623,LAVA BEDS NM,40.1414,-120.3533
149,USC00046256,Norte América,1950-2015,US,C00046256,MOORPARK,34.1667,-118.3833
150,USC00046499,Norte América,1950-2015,US,C00046499,MIRANDA SPENGLER RCH,41.1833,-123.9167
151,USC00046502,Norte América,1950-2015,US,C00046502,MORGAN HILL 2 E,37.8667,-122.1667
152,USC00046506,Norte América,1950-2015,US,C00046506,MONTICELLO DAM,39.7458,-122.1997
153,USC00046630,Norte América,1950-2015,US,C00046630,MT BALDY FC 85 G,33.7333,-116.3833
154,USC00046826,Norte América,1950-2015,US,C00046826,OAKVILLE 1 WNW,38.2578,-122.6078
155,USC00046943,Norte América,1950-2015,US,C00046943,PARKFIELD,35.1597,-120.6831
156,USC00047253,Norte América,1950-2015,US,C00047253,PALMDALE,35.3692,-117.6525
157,USC00047516,Norte América,1950-2015,US,C00047516,QUINCY,38.8,-121.2333
158,USC00047755,Norte América,1950-2015,US,C00047755,REDWOOD CITY,37.0167,-121.3333
159,USC00047987,Norte América,1950-2015,US,C00047987,RAMONA,33.7869,-117.7217
160,USC00048490,Norte América,1950-2015,US,C00048490,SAINT HELENA,39.8778,-123.7275
161,USC00048970,Norte América,1950-2015,US,C00048970,SQUAW VALLEY,38.6667,-119.55
162,USC00049047,Norte América,1950-2015,US,C00049047,SUNLAND,34.2667,-118.2833
163,USC00049468,Norte América,1950-2015,US,C00049468,TRACY,36.8833,-121.8
164,USC00049490,Norte América,1950-2015,US,C00049490,SMITH RIVER 3 WNW,40.7367,-122.9403
165,USC00049677,Norte América,1950-2015,US,C00049677,TIGER CREEK PH,39.15,-122.15
166,USC00050884,Norte América,1950-2015,US,C00050884,BETHUNE,38.9167,-103.2833
167,USC00051342,Norte América,1950-2015,US,C00051342,ALLENSPARK 2SE,40.0,-105.5167
168,USC00051528,Norte América,1950-2015,US,C00051528,ANTERO JUNCTION 3 NNE,39.2203,-105.2783
169,USC00051944,Norte América,1950-2015,US,C00051944,CIMARRON,37.85,-106.9167
170,USC00052441,Norte América,1950-2015,US,C00052441,CORTEZ,37.2911,-107.8564
171,USC00052731,Norte América,1950-2015,US,C00052731,DENVER 1 SW 7NEWS,40.05,-105.05
172,USC00052759,Norte América,1950-2015,US,C00052759,ESTES PARK,40.3767,-105.4858
173,USC00053246,Norte América,1950-2015,US,C00053246,FRUITA,38.6825,-108.9722
174,USC00053553,Norte América,1950-2015,US,C00053553,BRIGGSDALE,40.4022,-104.6992
175,USC00054413,Norte América,1950-2015,US,C00054413,HOLYOKE,40.9931,-102.2625
176,USC00054834,Norte América,1950-2015,US,C00054834,LAMAR,38.0636,-103.2153
177,USC00055881,Norte América,1950-2015,US,C00055881,KEYSTONE 5 E,40.0361,-105.5461
178,USC00056763,Norte América,1950-2015,US,C00056763,PUEBLO CITY RSVR,38.3167,-104.35
179,USC00056842,Norte América,1950-2015,US,C00056842,RAND,40.8667,-105.0167
180,USC00057317,Norte América,1950-2015,US,C00057317,PENROSE,37.9136,-104.9483
181,USC00057515,Norte América,1950-2015,US,C00057515,SEDGWICK,40.8592,-102.5167
182,USC00058212,Norte América,1950-2015,US,C00058212,ST ELMO,39.3333,-106.3333
183,USC00059295,Norte América,1950-2015,US,C00059295,WRAY,40.1239,-102.7214
184,USC00081056,Norte América,1950-2015,US,C00081056,ARCADIA,28.6333,-82.3333
185,USC00083153,Norte América,1950-2015,US,C00083153,DEER PARK,27.5706,-82.1378
186,USC00083163,Norte América,1950-2015,US,C00083163,FLAMINGO RS,26.1019,-80.2011
187,USC00083470,Norte América,1950-2015,US,C00083470,EUSTIS 2 S,30.2717,-82.1856
188,USC00084262,Norte América,1950-2015,US,C00084262,HAINES CITY 4 S,27.0167,-80.4667
189,USC00084320,Norte América,1950-2015,US,C00084320,HIALEAH,24.9178,-80.6364
190,USC00084892,Norte América,1950-2015,US,C00084892,LAKE CITY 2 E,30.4167,-83.9167
191,USC00085678,Norte América,1950-2015,US,C00085678,MIAMI 12 SSW,25.65,-80.3
192,USC00086634,Norte América,1950-2015,US,C00086634,MAMMOTH GROVE LK WALES,28.5083,-81.5467
193,USC00087886,Norte América,1950-2015,US,C00087886,ST PETERSBURG,27.7628,-82.6261
194,USC00088786,Norte América,1950-2015,US,C00088786,ROYAL PALM BEACH WEST,27.95,-82.45
195,USC00090979,Norte América,1950-2015,US,C00090979,ALBANY 3 SE,31.2239,-84.5553
196,USC00092328,Norte América,1950-2015,US,C00092328,CHOESTOE,33.55,-82.9
197,USC00092493,Norte América,1950-2015,US,C00092493,CALHOUN EXP STN,34.77,-84.8872
198,USC00093325,Norte América,1950-2015,US,C00093325,FT STEWART,30.8264,-82.3606
199,USC00093840,Norte América,1950-2015,US,C00093840,FORSYTH 6 NNW,33.3,-82.9333
200,USC00094138,Norte América,1950-2015,US,C00094138,GAINESVILLE,34.3389,-82.8342
201,USC00095555,Norte América,1950-2015,US,C00095555,KITE,32.3667,-83.9333
202,USC00095863,Norte América,1950-2015,US,C00095863,LOUISVILLE 1 E,32.8753,-82.2156
203,USC00096087,Norte América,1950-2015,US,C00096087,MANOR,31.1769,-83.7492
204,USC00098964,Norte América,1950-2015,US,C00098964,STATENVILLE 6 NE,30.8333,-83.3
205,USC00099466,Norte América,1950-2015,US,C00099466,SAUTEE 3W,33.9275,-83.7261
206,USC00100347,Norte América,1950-2015,US,C00100347,ABERDEEN EXP STN,42.5031,-112.5758
207,USC00101015,Norte América,1950-2015,US,C00101015,BOGUS CREEK,43.7667,-116.1167
208,USC00101109,Norte América,1950-2015,US,C00101109,AVERY RS,46.8761,-116.3992
209,USC00101551,Norte América,1950-2015,US,C00101551,CALDWELL,42.5503,-114.8661
210,USC00102392,Norte América,1950-2015,US,C00102392,CROUCH 2 NNW,44.4622,-115.5817
211,USC00102853,Norte América,1950-2015,US,C00102853,DOWNEY,44.4167,-112.6
212,USC00102892,Norte América,1950-2015,US,C00102892,DESMET 1 S,46.7822,-116.1797
213,USC00104384,Norte América,1950-2015,US,C00104384,GRACE,43.7828,-113.0033
214,USC00104442,Norte América,1950-2015,US,C00104442,GARDEN VALLEY,43.8383,-115.8319
215,USC00105013,Norte América,1950-2015,US,C00105013,HEADQUARTERS,46.0714,-115.9336
216,USC00105426,Norte América,1950-2015,US,C00105426,KUNA,44.0833,-115.5667
217,USC00105563,Norte América,1950-2015,US,C00105563,LAKE,42.2917,-113.3042
218,USC00106375,Norte América,1950-2015,US,C00106375,MOBES CREEK SUMMIT,43.6333,-115.8
219,USC00106493,Norte América,1950-2015,US,C00106493,MOOSE CREEK RCH,45.9167,-114.8333
220,USC00106785,Norte América,1950-2015,US,C00106785,NORTH FORK,42.2333,-111.4
221,USC00107357,Norte América,1950-2015,US,C00107357,PETE KING RS,47.6428,-115.9172
222,USC00107689,Norte América,1950-2015,US,C00107689,PRESTON,43.6758,-111.9125
223,USC00107948,Norte América,1950-2015,US,C00107948,SEAFOAM,43.6667,-116.05
224,USC00108676,Norte América,1950-2015,US,C00108676,SHOSHONE 1 WNW,44.2206,-114.9342
225,USC00108818,Norte América,1950-2015,US,C00108818,SMALL 6N,43.8867,-111.7367
226,USC00109294,Norte América,1950-2015,US,C00109294,TWIN FALLS 4.9 WSW,42.5833,-114.4667
227,USC00111532,Norte América,1950-2015,US,C00111532,BOURBONNAIS 3NW,41.9667,-87.6667
228,USC00111836,Norte América,1950-2015,US,C00111836,CARLINVILLE,40.6211,-89.2414
229,USC00112150,Norte América,1950-2015,US,C00112150,CASEY,40.1333,-87.65
230,USC00113262,Norte América,1950-2015,US,C00113262,FORRESTON,42.2972,-89.6039
231,USC00114137,Norte América,1950-2015,US,C00114137,GIBSON CITY,40.0597,-87.9756
232,USC00114447,Norte América,1950-2015,US,C00114447,HUNT DRAINAGE DIST,39.7133,-90.2286
233,USC00114770,Norte América,1950-2015,US,C00114770,HUDSON LK BLOOMINGTON,42.1333,-89.1167
234,USC00115314,Norte América,1950-2015,US,C00115314,JOLIET BRANDON RD DAM,41.4589,-87.9106
235,USC00115792,Norte América,1950-2015,US,C00115792,MARSHALL,40.0383,-88.5853
236,USC00115856,Norte América,1950-2015,US,C00115856,MENDOTA 2 SE,41.2333,-89.6667
237,USC00116605,Norte América,1950-2015,US,C00116605,OAKLAND,39.6333,-87.7
238,USC00117161,Norte América,1950-2015,US,C00117161,PEOTONE,41.1164,-88.2161
239,USC00118690,Norte América,1950-2015,US,C00118690,SULLIVAN,39.8,-88.2794
240,USC00121873,Norte América,1950-2015,US,C00121873,CLOVERDALE 4 WNW,40.0028,-86.8011
241,USC00122620,Norte América,1950-2015,US,C00122620,CYPRESS DAM 48,38.87,-87.0917
242,USC00123547,Norte América,1950-2015,US,C00123547,GREENFIELD,39.3475,-85.4892
243,USC00124667,Norte América,1950-2015,US,C00124667,KEWANNA 7 NW,40.4614,-86.2122
244,USC00126710,Norte América,1950-2015,US,C00126710,OOLITIC PURDUE EX FRM,38.5333,-86.4833
245,USC00127069,Norte América,1950-2015,US,C00127069,OSGOOD,40.4175,-84.9925
246,USC00127601,Norte América,1950-2015,US,C00127601,PLYMOUTH,40.8628,-86.5089
247,USC00127768,Norte América,1950-2015,US,C00127768,ROME,38.6167,-86.0333
248,USC00128784,Norte América,1950-2015,US,C00128784,SPEEDWAY INDIANAPOLIS,40.2233,-86.1086
249,USC00128996,Norte América,1950-2015,US,C00128996,THAYER,41.4667,-87.0667
250,USC00129113,Norte América,1950-2015,US,C00129113,VINCENNES 4 E,38.7386,-87.4878
251,USC00130133,Norte América,1950-2015,US,C00130133,AKRON,43.0683,-94.3053
252,USC00130214,Norte América,1950-2015,US,C00130214,ALLISON,42.0772,-91.3028
253,USC00130385,Norte América,1950-2015,US,C00130385,ACKWORTH 2 SW,41.7069,-94.9222
254,USC00130513,Norte América,1950-2015,US,C00130513,ALBIA 3 NNE,41.8167,-93.1333
255,USC00130940,Norte América,1950-2015,US,C00130940,BELMOND,42.8078,-96.2692
256,USC00131300,Norte América,1950-2015,US,C00131300,BUCKEYE,42.5378,-92.4431
257,USC00131394,Norte América,1950-2015,US,C00131394,BROOKLYN,41.0164,-93.2792
258,USC00131848,Norte América,1950-2015,US,C00131848,CARSON 3NNE,40.75,-93.4833
259,USC00132026,Norte América,1950-2015,US,C00132026,CHEROKEE,42.4667,-95.6667
260,USC00132364,Norte América,1950-2015,US,C00132364,CRESCO 1 NE,42.54,-90.6461
261,USC00133107,Norte América,1950-2015,US,C00133107,EMMETSBURG,42.5,-95.5
262,USC00133509,Norte América,1950-2015,US,C00133509,GLENWOOD,41.6686,-94.4972
263,USC00133584,Norte América,1950-2015,US,C00133584,FULTON,42.7561,-93.2019
264,USC00133980,Norte América,1950-2015,US,C00133980,HUMBOLDT 2,42.7197,-94.2203
265,USC00134389,Norte América,1950-2015,US,C00134389,GRINNELL 3 SW,40.7275,-91.9683
266,USC00134863,Norte América,1950-2015,US,C00134863,LAKE CITY,43.45,-95.8833
267,USC00134867,Norte América,1950-2015,US,C00134867,LAMONI,41.8167,-96.0167
268,USC00135203,Norte América,1950-2015,US,C00135203,LANSING,42.0656,-92.9081
269,USC00135732,Norte América,1950-2015,US,C00135732,LOWDEN,41.75,-91.4333
270,USC00136103,Norte América,1950-2015,US,C00136103,NASHUA 2 NW,43.4386,-93.2253
271,USC00136316,Norte América,1950-2015,US,C00136316,NORTHBORO,41.0194,-93.7503
272,USC00136975,Norte América,1950-2015,US,C00136975,POCAHONTAS,42.8169,-95.9711
273,USC00137340,Norte América,1950-2015,US,C00137340,ST CHARLES,41.2878,-93.8064
274,USC00137709,Norte América,1950-2015,US,C00137709,SANBORN,42.4028,-96.3581
275,USC00138266,Norte América,1950-2015,US,C00138266,SIGOURNEY,41.7797,-91.1269
276,USC00138705,Norte América,1950-2015,US,C00138705,TRIPOLI,42.5006,-92.3319
277,USC00140532,Norte América,1950-2015,US,C00140532,AGENDA,39.1775,-98.0414
278,USC00140645,Norte América,1950-2015,US,C00140645,ABILENE,38.65,-98.6667
279,USC00141632,Norte América,1950-2015,US,C00141632,BURR OAK 1N,39.6,-97.4003
280,USC00141867,Norte América,1950-2015,US,C00141867,CLINTON LAKE,38.6758,-96.5097
281,USC00142427,Norte América,1950-2015,US,C00142427,DE GRAFF,37.1833,-96.0333
282,USC00142541,Norte América,1950-2015,US,C00142541,DUNLAP 2 N,38.3861,-96.1817
283,USC00143072,Norte América,1950-2015,US,C00143072,FT SCOTT,37.5,-94.85
284,USC00143686,Norte América,1950-2015,US,C00143686,GRIDLEY,38.6644,-94.89
285,USC00143759,Norte América,1950-2015,US,C00143759,GREENLEAF,39.4578,-95.755
286,USC00143847,Norte América,1950-2015,US,C00143847,GOESSEL 2 NW,38.1042,-98.6592
287,USC00143989,Norte América,1950-2015,US,C00143989,HAVANA,37.9167,-95.4
288,USC00144331,Norte América,1950-2015,US,C00144331,GREENSBURG,37.9106,-99.4058
289,USC00144464,Norte América,1950-2015,US,C00144464,KISMET 4 WNW,37.9411,-101.2492
290,USC00144735,Norte América,1950-2015,US,C00144735,LACROSSE,38.5867,-97.6083
291,USC00144910,Norte América,1950-2015,US,C00144910,LA CYGNE 4ESE,38.6167,-95.6833
292,USC00144977,Norte América,1950-2015,US,C00144977,LEAVENWORTH 2,39.2,-96.6
293,USC00145856,Norte América,1950-2015,US,C00145856,MINGO 6E,39.7411,-99.8361
294,USC00146209,Norte América,1950-2015,US,C00146209,OLATHE 3E,38.5911,-94.8778
295,USC00147093,Norte América,1950-2015,US,C00147093,QUINTER,39.7675,-101.8067
296,USC00147402,Norte América,1950-2015,US,C00147402,SCOTT CITY,38.7667,-101.7167
297,USC00148498,Norte América,1950-2015,US,C00148498,WAKEENEY,39.23,-99.88
298,USC00148563,Norte América,1950-2015,US,C00148563,VALLEY FALLS,39.2142,-96.3703
299,USC00150383,Norte América,1950-2015,US,C00150383,ALBANY,36.85,-83.8667
300,USC00151808,Norte América,1950-2015,US,C00151808,CLOSPLINT 4 ESE,36.9217,-84.2267
301,USC00153252,Norte América,1950-2015,US,C00153252,FORDS FERRY DAM 5O,37.6011,-85.9067
302,USC00153712,Norte América,1950-2015,US,C00153712,GOOSEROCK,37.2983,-83.2158
303,USC00155235,Norte América,1950-2015,US,C00155235,LOVELACEVILLE,36.8583,-88.6686
304,USC00157215,Norte América,1950-2015,US,C00157215,ROUGH RIVER LAKE,36.7458,-86.2258
305,USC00158537,Norte América,1950-2015,US,C00158537,TYRONE LOCK 5,37.9483,-83.4825
306,USC00160537,Norte América,1950-2015,US,C00160537,ACME,32.7314,-91.9144
307,USC00161411,Norte América,1950-2015,US,C00161411,BONITA 3 S,32.5133,-92.3486
308,USC00161894,Norte América,1950-2015,US,C00161894,BRUSLY 2 W,30.8833,-91.0167
309,USC00163930,Norte América,1950-2015,US,C00163930,FRANKLIN 3 NW,29.95,-92.5167
310,USC00165892,Norte América,1950-2015,US,C00165892,LAARK,31.5769,-93.4817
311,USC00167905,Norte América,1950-2015,US,C00167905,PIONEER 6 W,31.6833,-93.3
312,USC00168813,Norte América,1950-2015,US,C00168813,ST FRANCISVILLE,30.65,-90.9333
313,USC00170371,Norte América,1950-2015,US,C00170371,ACADIA NP,44.4167,-68.25
314,USC00173046,Norte América,1950-2015,US,C00173046,CORINNA,44.2203,-69.7889
315,USC00174569,Norte América,1950-2015,US,C00174569,KENNEBEC ARSENAL,44.1,-70.1667
316,USC00177250,Norte América,1950-2015,US,C00177250,NORTH ANDOVER,44.1,-69.1167
317,USC00178936,Norte América,1950-2015,US,C00178936,STRATTON,44.5833,-69.3333
318,USC00188003,Norte América,1950-2015,US,C00188003,ROYAL OAK 2 SSW,38.42,-75.5642
319,USC00190840,Norte América,1950-2015,US,C00190840,ADAMS,41.9539,-70.9572
320,USC00193405,Norte América,1950-2015,US,C00193405,DORCHESTER,42.3333,-72.25
321,USC00194615,Norte América,1950-2015,US,C00194615,LAKE COCHITUATE,42.4167,-71.1167
322,USC00198918,Norte América,1950-2015,US,C00198918,TULLY LAKE,42.05,-71.8833
323,USC00200373,Norte América,1950-2015,US,C00200373,ADRIAN 2 NNE,43.1256,-82.6886
324,USC00200476,Norte América,1950-2015,US,C00200476,ADA,42.3167,-86.1167
325,USC00200662,Norte América,1950-2015,US,C00200662,BALDWIN,44.9758,-85.1981
326,USC00200925,Norte América,1950-2015,US,C00200925,AKRON 7 NW,45.1672,-84.9139
327,USC00201802,Norte América,1950-2015,US,C00201802,CHATHAM EXP FA,45.8269,-87.1589
328,USC00202094,Norte América,1950-2015,US,C00202094,DE TOUR,45.9983,-83.9014
329,USC00202140,Norte América,1950-2015,US,C00202140,CANTON,42.6408,-84.6497
330,USC00203023,Norte América,1950-2015,US,C00203023,FIFE LAKE 4 S,43.4667,-85.95
331,USC00203529,Norte América,1950-2015,US,C00203529,GAYLORD 9SSW,44.4633,-83.7217
332,USC00203576,Norte América,1950-2015,US,C00203576,GANGES,41.85,-86.6667
333,USC00203712,Norte América,1950-2015,US,C00203712,GOODRICH,42.4344,-83.9858
334,USC00204093,Norte América,1950-2015,US,C00204093,GREEN,46.0667,-88.6333
335,USC00204320,Norte América,1950-2015,US,C00204320,HESPERIA 4 WNW,43.1994,-85.7717
336,USC00204655,Norte América,1950-2015,US,C00204655,LANSING # 2,43.0608,-83.3075
337,USC00205065,Norte América,1950-2015,US,C00205065,LUDINGTON 4 SE,44.2114,-86.2939
338,USC00205218,Norte América,1950-2015,US,C00205218,LEWISTON,43.3833,-83.2167
339,USC00206642,Norte América,1950-2015,US,C00206642,MUNITH 5 SW,42.3833,-83.4333
340,USC00207217,Norte América,1950-2015,US,C00207217,POSEYVILLE 4SW,43.45,-83.9667
341,USC00207689,Norte América,1950-2015,US,C00207689,ROCKFORD,42.4167,-86.1833
342,USC00207880,Norte América,1950-2015,US,C00207880,SENEY NATL WILDLIFE RE,46.1833,-86.4667
343,USC00208443,Norte América,1950-2015,US,C00208443,UNIONVILLE,43.3656,-83.5828
344,USC00210252,Norte América,1950-2015,US,C00210252,ADA,48.3311,-96.8253
345,USC00210746,Norte América,1950-2015,US,C00210746,ALLEN JUNCTION,48.1969,-93.7994
346,USC00210783,Norte América,1950-2015,US,C00210783,BENSON,44.7667,-94.9
347,USC00210974,Norte América,1950-2015,US,C00210974,ALEXANDRIA WTR TWR PLT,46.3047,-96.5217
348,USC00211074,Norte América,1950-2015,US,C00211074,AITKIN 2E,46.3003,-92.5336
349,USC00211935,Norte América,1950-2015,US,C00211935,ALBERT LEA 3 SE,44.9333,-93.5833
350,USC00213104,Norte América,1950-2015,US,C00213104,DALTON 3S,47.0792,-96.7758
351,USC00213764,Norte América,1950-2015,US,C00213764,FLOODWOOD,46.9833,-93.6
352,USC00214008,Norte América,1950-2015,US,C00214008,GRAND RPDS FOREST LAB,48.6236,-93.8992
353,USC00214937,Norte América,1950-2015,US,C00214937,KINBRAE,43.6658,-96.2022
354,USC00215603,Norte América,1950-2015,US,C00215603,LITTLE FALLS 2NNE,46.45,-92.7667
355,USC00215987,Norte América,1950-2015,US,C00215987,JORDAN 1SSW,44.4753,-93.1486
356,USC00216228,Norte América,1950-2015,US,C00216228,LONG PRAIRIE,46.2153,-96.1781
357,USC00217012,Norte América,1950-2015,US,C00217012,PIPESTONE,43.6556,-96.2058
358,USC00218187,Norte América,1950-2015,US,C00218187,REMER,46.6333,-93.1333
359,USC00218411,Norte América,1950-2015,US,C00218411,THIEF LAKE REFUGE,47.2236,-96.2922
360,USC00218808,Norte América,1950-2015,US,C00218808,ST FRANCIS 4 S,43.7467,-93.7367
361,USC00218907,Norte América,1950-2015,US,C00218907,ST OLAF,45.8081,-96.5042
362,USC00219004,Norte América,1950-2015,US,C00219004,TRACY,45.1078,-95.0358
363,USC00220290,Norte América,1950-2015,US,C00220290,ABBEVILLE,34.8492,-89.1597
364,USC00220585,Norte América,1950-2015,US,C00220585,AMERICUS,31.2353,-88.9186
365,USC00221606,Norte América,1950-2015,US,C00221606,CANTON 4N,34.0039,-90.0681
366,USC00221962,Norte América,1950-2015,US,C00221962,BURNSVILLE SUBSTN,34.8792,-88.6178
367,USC00222094,Norte América,1950-2015,US,C00222094,CLINTON EXP STN,31.9461,-90.3775
368,USC00223340,Norte América,1950-2015,US,C00223340,ELLIOTT 4 NW,32.9267,-88.8536
369,USC00223645,Norte América,1950-2015,US,C00223645,GERMANIA,33.7608,-89.8136
370,USC00224816,Norte América,1950-2015,US,C00224816,IUKA,34.3044,-89.2564
371,USC00225384,Norte América,1950-2015,US,C00225384,KNOXVILLE TOWER,32.4333,-90.1333
372,USC00226719,Norte América,1950-2015,US,C00226719,NEWTON EXP STN,30.35,-88.5667
373,USC00227106,Norte América,1950-2015,US,C00227106,PADEN,34.2486,-88.9975
374,USC00229326,Norte América,1950-2015,US,C00229326,THYATIRA,32.5972,-89.4606
375,USC00229444,Norte América,1950-2015,US,C00229444,TOPTON 2,31.6833,-88.6833
376,USC00230536,Norte América,1950-2015,US,C00230536,AUXVASSE 4 SSW,38.25,-91.75
377,USC00231037,Norte América,1950-2015,US,C00231037,ASHTON 1 W,39.4247,-93.1331
378,USC00231145,Norte América,1950-2015,US,C00231145,BLAIRSTOWN,38.2611,-94.405
379,USC00233238,Norte América,1950-2015,US,C00233238,FLEMINGTON 3 E,38.5156,-92.8556
380,USC00234722,Norte América,1950-2015,US,C00234722,IBERIA,38.7833,-93.4
381,USC00234924,Norte América,1950-2015,US,C00234924,KOSHKONONG,37.5167,-91.9833
382,USC00235578,Norte América,1950-2015,US,C00235578,MARTINSBURG,40.2211,-93.1097
383,USC00235579,Norte América,1950-2015,US,C00235579,LAMAR 2W,36.6833,-93.8
384,USC00236357,Norte América,1950-2015,US,C00236357,MERCER 6 NW,39.9808,-95.1464
385,USC00236460,Norte América,1950-2015,US,C00236460,MORRISVILLE 2SW,36.66,-93.1264
386,USC00237265,Norte América,1950-2015,US,C00237265,POLK 2 NE,37.95,-91.8333
387,USC00238043,Norte América,1950-2015,US,C00238043,ST CHARLES 7 SSW,38.0053,-91.3706
388,USC00238051,Norte América,1950-2015,US,C00238051,ST. CATHARINE,39.9714,-91.8872
389,USC00238583,Norte América,1950-2015,US,C00238583,SEYMOUR 1 NNW,36.9858,-92.2058
390,USC00238725,Norte América,1950-2015,US,C00238725,TROY,38.835,-91.1386
391,USC00240801,Norte América,1950-2015,US,C00240801,ABSAROKEE (1),45.7508,-108.5706
392,USC00240824,Norte América,1950-2015,US,C00240824,BARTHELMESS RANCH,45.3333,-106.25
393,USC00241730,Norte América,1950-2015,US,C00241730,CARTER 14 W,48.1731,-109.0044
394,USC00241738,Norte América,1950-2015,US,C00241738,CONRAD 9 ESE MSR,47.8642,-112.0222
395,USC00241831,Norte América,1950-2015,US,C00241831,BUTTE SCHOOL OF MINES,46.7169,-113.6672
396,USC00242409,Norte América,1950-2015,US,C00242409,CONWAYS RCH,45.2128,-112.6447
397,USC00242827,Norte América,1950-2015,US,C00242827,EUREKA RS,48.8978,-115.0644
398,USC00243113,Norte América,1950-2015,US,C00243113,DUNKIRK 19NNE,47.8306,-110.6608
399,USC00243148,Norte América,1950-2015,US,C00243148,FALLON,46.3833,-105.8667
400,USC00243389,Norte América,1950-2015,US,C00243389,DEEP CREEK PASS 2,46.7333,-109.5667
401,USC00243885,Norte América,1950-2015,US,C00243885,FORT HARRISON,46.2553,-114.1642
402,USC00244143,Norte América,1950-2015,US,C00244143,HALF MOON PASS,47.2528,-109.3614
403,USC00244172,Norte América,1950-2015,US,C00244172,HARB,48.55,-110.4333
404,USC00244560,Norte América,1950-2015,US,C00244560,KALISPELL GLACIER AP,48.3094,-114.2522
405,USC00245191,Norte América,1950-2015,US,C00245191,KINREAD,48.95,-107.8167
406,USC00245533,Norte América,1950-2015,US,C00245533,LIVINGSTON,45.6628,-110.1147
407,USC00245659,Norte América,1950-2015,US,C00245659,LINCOLN 14 NE,47.0167,-112.35
408,USC00245668,Norte América,1950-2015,US,C00245668,LINDSAY,46.7614,-104.9619
409,USC00245706,Norte América,1950-2015,US,C00245706,LAVINA,47.0211,-111.3689
410,USC00246470,Norte América,1950-2015,US,C00246470,OLSEN CREEK,46.3333,-113.3
411,USC00246615,Norte América,1950-2015,US,C00246615,MOUNT SILCOX,48.7647,-114.2842
412,USC00246918,Norte América,1950-2015,US,C00246918,PARK CITY 1NE,45.1769,-109.2572
413,USC00247140,Norte América,1950-2015,US,C00247140,PENWELL'S RANCH,46.7833,-106.1333
414,USC00247228,Norte América,1950-2015,US,C00247228,PINEGROVE,47.4869,-108.8372
415,USC00247250,Norte América,1950-2015,US,C00247250,PHILLIPS 1 S,48.9375,-110.5661
416,USC00248021,Norte América,1950-2015,US,C00248021,ST. PETER,47.4775,-111.7406
417,USC00248093,Norte América,1950-2015,US,C00248093,ST. MARY'S LAKE,48.9972,-111.9642
418,USC00248324,Norte América,1950-2015,US,C00248324,STANFORD,46.3308,-111.5378
419,USC00248859,Norte América,1950-2015,US,C00248859,THREE FORKS,44.7867,-111.1317
420,USC00249011,Norte América,1950-2015,US,C00249011,WEST GLACIER,47.5333,-112.4167
421,USC00249067,Norte América,1950-2015,US,C00249067,VIRGINIA CITY,45.6178,-113.4514
422,USC00249103,Norte América,1950-2015,US,C00249103,VIDA 6 NE,48.1,-105.6483
423,USC00250180,Norte América,1950-2015,US,C00250180,AINSWORTH,42.2342,-98.9156
424,USC00250622,Norte América,1950-2015,US,C00250622,ADAMS,40.2994,-96.75
425,USC00250810,Norte América,1950-2015,US,C00250810,ALMA,40.5283,-99.6353
426,USC00251345,Norte América,1950-2015,US,C00251345,BRADY,41.7769,-99.1433
427,USC00251825,Norte América,1950-2015,US,C00251825,CENTRAL CITY,41.4639,-97.3278
428,USC00252225,Norte América,1950-2015,US,C00252225,CHESTER,40.1378,-95.7786
429,USC00252560,Norte América,1950-2015,US,C00252560,COZAD,40.2764,-99.7836
430,USC00253469,Norte América,1950-2015,US,C00253469,FT CALHOUN 4W,41.13,-96.1989
431,USC00253715,Norte América,1950-2015,US,C00253715,HARRISON,42.5119,-102.6944
432,USC00253900,Norte América,1950-2015,US,C00253900,GIBBON,40.3047,-100.01
433,USC00253923,Norte América,1950-2015,US,C00253923,FRIEND 3E,40.5833,-96.5833
434,USC00255287,Norte América,1950-2015,US,C00255287,LEBANON,40.6333,-100.75
435,USC00255860,Norte América,1950-2015,US,C00255860,MULLEN,42.65,-101.1667
436,USC00255960,Norte América,1950-2015,US,C00255960,NE NEBRASKA EXP STN,42.7472,-98.0467
437,USC00256386,Norte América,1950-2015,US,C00256386,OGALLALA,41.4953,-102.1844
438,USC00257040,Norte América,1950-2015,US,C00257040,RAVENNA,41.0319,-98.9214
439,USC00258050,Norte América,1950-2015,US,C00258050,SCHUYLER,41.65,-96.3333
440,USC00258365,Norte América,1950-2015,US,C00258365,SALEM,40.6167,-97.8333
441,USC00258935,Norte América,1950-2015,US,C00258935,VERDEL 6SSE,42.1506,-96.4756
442,USC00259279,Norte América,1950-2015,US,C00259279,UTICA,40.4833,-96.9667
443,USC00261358,Norte América,1950-2015,US,C00261358,BLUE EAGLE RCH - CURRANT 12SS,37.6128,-114.5264
444,USC00262662,Norte América,1950-2015,US,C00262662,DAGGET PASS,40.5833,-119.35
445,USC00262805,Norte América,1950-2015,US,C00262805,DOLLY VARDEN,41.2,-114.6667
446,USC00264086,Norte América,1950-2015,US,C00264086,HALLECK,40.45,-115.65
447,USC00265092,Norte América,1950-2015,US,C00265092,LEE,41.2833,-115.0167
448,USC00265155,Norte América,1950-2015,US,C00265155,LEETVILLE,39.0167,-117.1667
449,USC00265880,Norte América,1950-2015,US,C00265880,MT. CHARLESTON F.S.,37.2689,-115.1217
450,USC00267806,Norte América,1950-2015,US,C00267806,ROSE CREEK RANCH,38.9667,-119.95
451,USC00268811,Norte América,1950-2015,US,C00268811,TOPAZ LAKE,41.6,-119.9
452,USC00281106,Norte América,1950-2015,US,C00281106,AUDUBON,39.8833,-75.1167
453,USC00281327,Norte América,1950-2015,US,C00281327,BELMAR 2 SW,41.1086,-74.4817
454,USC00282652,Norte América,1950-2015,US,C00282652,CRANFORD,40.6333,-74.2
455,USC00283102,Norte América,1950-2015,US,C00283102,DEEPWATER,39.2333,-75.1667
456,USC00286146,Norte América,1950-2015,US,C00286146,MORRIS PLAINS 1 W,40.9611,-74.0158
457,USC00291883,Norte América,1950-2015,US,C00291883,CIMARRON 4 SW,36.4594,-103.1997
458,USC00292710,Norte América,1950-2015,US,C00292710,COCHITI DAM,36.7,-105.5667
459,USC00293305,Norte América,1950-2015,US,C00293305,FARMINGTON 4 NE,35.4667,-108.5333
460,USC00293530,Norte América,1950-2015,US,C00293530,FAYWOOD,33.1975,-108.2075
461,USC00294028,Norte América,1950-2015,US,C00294028,HOBBS,32.6933,-103.2125
462,USC00294662,Norte América,1950-2015,US,C00294662,JEMEZ DAM,35.7333,-105.15
463,USC00296138,Norte América,1950-2015,US,C00296138,LOS LUNAS,33.5167,-105.6833
464,USC00297254,Norte América,1950-2015,US,C00297254,PORTALES,34.1508,-105.0044
465,USC00298072,Norte América,1950-2015,US,C00298072,RED RIVER,35.6833,-105.9
466,USC00298872,Norte América,1950-2015,US,C00298872,STATE UNIV,32.6431,-105.6933
467,USC00299330,Norte América,1950-2015,US,C00299330,TANNER RCH,35.8167,-104.9244
468,USC00299342,Norte América,1950-2015,US,C00299342,TAOS,35.3667,-106.35
469,USC00300093,Norte América,1950-2015,US,C00300093,ADDISON,42.1003,-78.7497
470,USC00300511,Norte América,1950-2015,US,C00300511,AMAWALK,41.2333,-73.7167
471,USC00300655,Norte América,1950-2015,US,C00300655,ALBANY,42.65,-74.1667
472,USC00301152,Norte América,1950-2015,US,C00301152,BOLIVAR,42.8453,-77.2808
473,USC00301728,Norte América,1950-2015,US,C00301728,CAYUGA LOCK #1,43.25,-76.0
474,USC00302302,Norte América,1950-2015,US,C00302302,DELHI 2 SE,42.2833,-74.9167
475,USC00303069,Norte América,1950-2015,US,C00303069,DERBY 2 NW,42.1908,-78.1458
476,USC00303508,Norte América,1950-2015,US,C00303508,FT PLAIN,43.2242,-75.3997
477,USC00304957,Norte América,1950-2015,US,C00304957,LAWRENCEVILLE 3 SW,43.95,-76.1167
478,USC00305346,Norte América,1950-2015,US,C00305346,MANORKILL,41.95,-73.5167
479,USC00306028,Norte América,1950-2015,US,C00306028,MONGAUP VALLEY 4 SSW,43.1833,-76.8833
480,USC00306164,Norte América,1950-2015,US,C00306164,NEHASANE,44.7281,-75.4442
481,USC00306659,Norte América,1950-2015,US,C00306659,PAUL SMITHS,44.65,-73.4667
482,USC00307514,Norte América,1950-2015,US,C00307514,RIFTON 1 N,42.8,-73.9167
483,USC00308006,Norte América,1950-2015,US,C00308006,ST JOHNSVILLE,42.6,-75.4333
484,USC00308742,Norte América,1950-2015,US,C00308742,TERRY CLOVE,43.0,-75.2667
485,USC00309189,Norte América,1950-2015,US,C00309189,THURSTON,42.2956,-79.5856
486,USC00310642,Norte América,1950-2015,US,C00310642,ALTAPASS,35.7,-82.4333
487,USC00311174,Norte América,1950-2015,US,C00311174,ANDREWS,35.1833,-82.6167
488,USC00311423,Norte América,1950-2015,US,C00311423,CANDOR,35.2667,-79.6833
489,USC00311579,Norte América,1950-2015,US,C00311579,BLUFF,35.7444,-81.0847
490,USC00312253,Norte América,1950-2015,US,C00312253,CHIMNEY ROCK,35.2833,-82.8333
491,USC00313228,Norte América,1950-2015,US,C00313228,ENKA,35.1803,-83.3928
492,USC00314050,Norte América,1950-2015,US,C00314050,HAYESVILLE 1 SW,35.05,-83.2
493,USC00314689,Norte América,1950-2015,US,C00314689,JACKSONVILLE EOC,35.2975,-77.5722
494,USC00315045,Norte América,1950-2015,US,C00315045,LENOIR,35.85,-82.1
495,USC00315275,Norte América,1950-2015,US,C00315275,DUNN 4 NW,35.2,-79.0167
496,USC00315923,Norte América,1950-2015,US,C00315923,MCKINNEY GAP,35.7586,-82.2711
497,USC00316122,Norte América,1950-2015,US,C00316122,MOCKSVILLE 5SE,35.6808,-78.9158
498,USC00317165,Norte América,1950-2015,US,C00317165,PINEHURST STHRN PINES,34.8122,-79.1622
499,USC00317508,Norte América,1950-2015,US,C00317508,PITTSBORO,35.7,-80.6167
500,USC00318370,Norte América,1950-2015,US,C00318370,SELMA,35.15,-76.7667
501,USC00319147,Norte América,1950-2015,US,C00319147,WAYAH BALD,35.4867,-82.9681
502,USC00319191,Norte América,1950-2015,US,C00319191,TARBORO 1 S,36.4333,-77.6
503,USC00319406,Norte América,1950-2015,US,C00319406,TRANSOU,36.15,-81.1833
504,USC00320766,Norte América,1950-2015,US,C00320766,ALMONT,47.2622,-101.7906
505,USC00320946,Norte América,1950-2015,US,C00320946,ALEXANDER 4 NNW,48.9333,-100.3667
506,USC00322536,Norte América,1950-2015,US,C00322536,DAWSON,47.2653,-98.8578
507,USC00323019,Norte América,1950-2015,US,C00323019,CROSBY,48.9,-102.3833
508,USC00323206,Norte América,1950-2015,US,C00323206,DICKINSON EXP STN,46.0917,-100.6286
509,USC00323926,Norte América,1950-2015,US,C00323926,FULLERTON 1 ESE,47.3111,-98.1856
510,USC00323936,Norte América,1950-2015,US,C00323936,HURRICANE LAKE,49.0,-98.6833
511,USC00325610,Norte América,1950-2015,US,C00325610,LANGDON EXP FARM,47.8333,-100.1167
512,USC00325710,Norte América,1950-2015,US,C00325710,LEFOR 10 E,47.4825,-100.4444
513,USC00325720,Norte América,1950-2015,US,C00325720,LOSTWOOD 12 N,48.5969,-102.9283
514,USC00325754,Norte América,1950-2015,US,C00325754,KULM,46.3911,-97.2392
515,USC00327824,Norte América,1950-2015,US,C00327824,SAN HAVEN,48.8333,-100.0333
516,USC00328812,Norte América,1950-2015,US,C00328812,TAYLOR 7 NNW,47.2842,-103.9006
517,USC00329233,Norte América,1950-2015,US,C00329233,TIOGA 1E,47.8039,-103.2892
518,USC00331474,Norte América,1950-2015,US,C00331474,BRILLIANT,40.5,-81.7833
519,USC00331573,Norte América,1950-2015,US,C00331573,BATAVIA 4 N,39.0667,-84.3333
520,USC00331653,Norte América,1950-2015,US,C00331653,BURTON 1 W,41.4667,-81.5667
521,USC00331779,Norte América,1950-2015,US,C00331779,BUCKEYE LAKE 1 N,39.8469,-82.9872
522,USC00332847,Norte América,1950-2015,US,C00332847,CATAWBA ISLAND 1 SW,41.2833,-82.4
523,USC00333380,Norte América,1950-2015,US,C00333380,DEFIANCE PWR PLT,40.1,-84.6167
524,USC00333478,Norte América,1950-2015,US,C00333478,FAIRFIELD,39.4,-84.5833
525,USC00334363,Norte América,1950-2015,US,C00334363,KENTON OHIO PWR COMPA,40.5167,-83.8833
526,USC00335708,Norte América,1950-2015,US,C00335708,LINDEN HEIGHTS,40.4167,-82.1
527,USC00336170,Norte América,1950-2015,US,C00336170,LAGRANGE 1 NE,41.5167,-83.3
528,USC00336337,Norte América,1950-2015,US,C00336337,NEW BREMEN,41.0167,-84.05
529,USC00337400,Norte América,1950-2015,US,C00337400,ROCKFORD WATER DEPT,40.1394,-83.9289
530,USC00338020,Norte América,1950-2015,US,C00338020,RITTMAN,40.3667,-80.6167
531,USC00338960,Norte América,1950-2015,US,C00338960,ST MARTIN URSULINE SCH,39.2667,-84.5
532,USC00340288,Norte América,1950-2015,US,C00340288,ALTUS DAM,35.6542,-97.3658
533,USC00340364,Norte América,1950-2015,US,C00340364,ADA,34.7833,-96.0667
534,USC00340814,Norte América,1950-2015,US,C00340814,ADAIR 1 E,36.8,-97.3
535,USC00341445,Norte América,1950-2015,US,C00341445,BILLINGS,36.0617,-98.59
536,USC00341927,Norte América,1950-2015,US,C00341927,BRITTON 2 E,35.2333,-98.8167
537,USC00343295,Norte América,1950-2015,US,C00343295,EDMOND 5ESE,35.5667,-98.0333
538,USC00343489,Norte América,1950-2015,US,C00343489,FT SUPPLY 3SE,36.85,-100.0569
539,USC00344978,Norte América,1950-2015,US,C00344978,KINGFISHER 1W MESONET,35.4878,-97.6644
540,USC00345020,Norte América,1950-2015,US,C00345020,HUGO,34.3086,-95.9969
541,USC00346713,Norte América,1950-2015,US,C00346713,NEWKIRK 8E MESONET,36.0333,-95.7333
542,USC00348124,Norte América,1950-2015,US,C00348124,QUINTON,35.3647,-96.9481
543,USC00348335,Norte América,1950-2015,US,C00348335,SAPULPA 1W,36.55,-94.9
544,USC00350694,Norte América,1950-2015,US,C00350694,AGENCY PLAINS,44.0569,-121.285
545,USC00350788,Norte América,1950-2015,US,C00350788,ANTELOPE 6 SSW,45.6333,-120.4
546,USC00351360,Norte América,1950-2015,US,C00351360,ALOHA RANCH,42.8333,-124.5667
547,USC00351682,Norte América,1950-2015,US,C00351682,ASTOR EXP STN,45.205,-123.8925
548,USC00351902,Norte América,1950-2015,US,C00351902,BROWNSVILLE,43.7178,-123.0578
549,USC00352493,Norte América,1950-2015,US,C00352493,DALLAS 2 NE,45.2761,-122.2019
550,USC00352633,Norte América,1950-2015,US,C00352633,DISSTON 1 NE LAYING CK,43.5992,-123.5992
551,USC00352974,Norte América,1950-2015,US,C00352974,FAIRVIEW 4 NE,43.1914,-123.5545
552,USC00353827,Norte América,1950-2015,US,C00353827,HARDMAN,45.3653,-119.5639
553,USC00353847,Norte América,1950-2015,US,C00353847,GRANITE 4 WSW,45.8289,-119.2636
554,USC00355050,Norte América,1950-2015,US,C00355050,LACOMB 1 WNW,43.9144,-122.76
555,USC00355160,Norte América,1950-2015,US,C00355160,LITTLE VALLEY,43.9794,-117.0247
556,USC00355275,Norte América,1950-2015,US,C00355275,LAPINE,44.0667,-120.2667
557,USC00355838,Norte América,1950-2015,US,C00355838,LAUREL MTN,46.0333,-123.25
558,USC00356294,Norte América,1950-2015,US,C00356294,NYSSA,44.0439,-116.9717
559,USC00357331,Norte América,1950-2015,US,C00357331,PERSIST,43.2131,-123.3658
560,USC00357586,Norte América,1950-2015,US,C00357586,PORTLAND KGW-TV,45.4833,-123.2
561,USC00359121,Norte América,1950-2015,US,C00359121,THREE LYNX,46.1564,-123.4022
562,USC00360259,Norte América,1950-2015,US,C00360259,ALTOONA,39.75,-78.4667
563,USC00360629,Norte América,1950-2015,US,C00360629,ALBRIGHTSVILLE,40.6167,-75.3833
564,USC00361461,Norte América,1950-2015,US,C00361461,CANONSBURG,40.3,-79.8667
565,USC00362029,Norte América,1950-2015,US,C00362029,CAMP HILL,40.4167,-76.9333
566,USC00362190,Norte América,1950-2015,US,C00362190,DAVIS ISLAND DAM,40.1636,-79.8694
567,USC00363417,Norte América,1950-2015,US,C00363417,FALLS CREEK,40.9667,-78.5872
568,USC00364047,Norte América,1950-2015,US,C00364047,FREDERICKSVILLE 2 SE,40.0881,-75.9081
569,USC00364432,Norte América,1950-2015,US,C00364432,JAMESTOWN 2 NW,41.6767,-78.8036
570,USC00364992,Norte América,1950-2015,US,C00364992,KYLERTOWN,40.5864,-77.5692
571,USC00366840,Norte América,1950-2015,US,C00366840,MAPLE GLEN 2 ESE,40.3667,-75.3
572,USC00369050,Norte América,1950-2015,US,C00369050,TUNNELTON,39.915,-79.7192
573,USC00381249,Norte América,1950-2015,US,C00381249,ANDERSON,35.1167,-82.6333
574,USC00381310,Norte América,1950-2015,US,C00381310,BISHOPVILLE 1ENE,34.2428,-80.6564
575,USC00383742,Norte América,1950-2015,US,C00383742,DUE WEST,34.85,-82.35
576,USC00385306,Norte América,1950-2015,US,C00385306,JAMESTOWN,34.0347,-78.8825
577,USC00385360,Norte América,1950-2015,US,C00385360,KERSHAW 1SW,34.45,-80.65
578,USC00387390,Norte América,1950-2015,US,C00387390,PARR,34.9833,-80.9667
579,USC00387683,Norte América,1950-2015,US,C00387683,MANNING,33.8089,-80.9019
580,USC00388181,Norte América,1950-2015,US,C00388181,SALEM 5 NNE,34.95,-81.9
581,USC00389327,Norte América,1950-2015,US,C00389327,WATEREE DAM,34.3706,-81.0825
582,USC00390107,Norte América,1950-2015,US,C00390107,ALCESTER 9 SE,42.95,-96.5167
583,USC00391452,Norte América,1950-2015,US,C00391452,ARLINGTON 1 W,44.6886,-97.8889
584,USC00392228,Norte América,1950-2015,US,C00392228,BEAR RIDGE,44.0667,-103.9
585,USC00392927,Norte América,1950-2015,US,C00392927,CRESBARD 8 NW,45.0364,-99.1342
586,USC00393838,Norte América,1950-2015,US,C00393838,HARROLD 12 SSW,44.8444,-99.4894
587,USC00394037,Norte América,1950-2015,US,C00394037,FLANDREAU,44.0122,-97.5242
588,USC00394343,Norte América,1950-2015,US,C00394343,GOLDFIELD,44.0839,-103.4342
589,USC00394630,Norte América,1950-2015,US,C00394630,HOT SPRINGS,43.4403,-102.1431
590,USC00395456,Norte América,1950-2015,US,C00395456,LEOLA,45.155,-98.5825
591,USC00395648,Norte América,1950-2015,US,C00395648,LAKE SHARPE PROJECT,44.7342,-100.8042
592,USC00395744,Norte América,1950-2015,US,C00395744,MARCUS 8 NNW,43.95,-104.0
593,USC00396650,Norte América,1950-2015,US,C00396650,LYONS 5 SSW,43.7156,-98.4822
594,USC00396736,Norte América,1950-2015,US,C00396736,MT COOLIDGE,43.395,-102.3894
595,USC00397227,Norte América,1950-2015,US,C00397227,PLAINVIEW 6 SSW,44.1317,-103.7506
596,USC00397277,Norte América,1950-2015,US,C00397277,POLLOCK,45.4525,-99.3358
597,USC00397326,Norte América,1950-2015,US,C00397326,PEEVER 5 NE,45.7189,-97.4769
598,USC00398622,Norte América,1950-2015,US,C00398622,SIOUX FALLS WFO AP,42.7625,-96.9194
599,USC00399012,Norte América,1950-2015,US,C00399012,TURTON,45.4833,-97.55
600,USC00401561,Norte América,1950-2015,US,C00401561,ALLARDT,36.5408,-85.4597
601,USC00401582,Norte América,1950-2015,US,C00401582,BROWNSVILLE,35.7833,-87.4667
602,USC00402207,Norte América,1950-2015,US,C00402207,CHAPEL HILL,35.95,-85.0333
603,USC00402390,Norte América,1950-2015,US,C00402390,COVINGTON 3 SW,35.5953,-88.1175
604,USC00404566,Norte América,1950-2015,US,C00404566,HALLS,35.55,-88.7833
605,USC00404948,Norte América,1950-2015,US,C00404948,JONES COVE,35.9833,-83.9167
606,USC00405197,Norte América,1950-2015,US,C00405197,HILLSBORO,35.4667,-86.8
607,USC00406340,Norte América,1950-2015,US,C00406340,MC MINNVILLE,35.5572,-87.2019
608,USC00407589,Norte América,1950-2015,US,C00407589,PICKETT SP,36.5378,-85.8522
609,USC00410510,Norte América,1950-2015,US,C00410510,ADAMSVILLE,30.1197,-98.7867
610,USC00410572,Norte América,1950-2015,US,C00410572,ALTA LOMA,29.0,-95.9667
611,USC00410655,Norte América,1950-2015,US,C00410655,ACKER RCH,30.0317,-96.2167
612,USC00410977,Norte América,1950-2015,US,C00410977,BOOTLEG CORNER,34.5167,-102.8833
613,USC00411017,Norte América,1950-2015,US,C00411017,ACTON RCH,31.1444,-99.3492
614,USC00411500,Norte América,1950-2015,US,C00411500,CARMONA,32.1614,-94.3397
615,USC00411986,Norte América,1950-2015,US,C00411986,CALDWELL,31.1167,-97.9167
616,USC00412121,Norte América,1950-2015,US,C00412121,COLORADO CITY,33.6517,-101.245
617,USC00412403,Norte América,1950-2015,US,C00412403,CLEBURNE,33.2333,-97.1333
618,USC00412768,Norte América,1950-2015,US,C00412768,DANEVANG 1 W,28.9667,-96.6833
619,USC00413624,Norte América,1950-2015,US,C00413624,GEORGE WEST 2 SSW,29.4358,-97.5178
620,USC00413683,Norte América,1950-2015,US,C00413683,FERRIS,32.2667,-97.1833
621,USC00414139,Norte América,1950-2015,US,C00414139,HARLINGEN,26.1,-98.2667
622,USC00414182,Norte América,1950-2015,US,C00414182,FLAT,32.0161,-97.1094
623,USC00414525,Norte América,1950-2015,US,C00414525,HEMPHILL,31.9622,-95.2736
624,USC00414972,Norte América,1950-2015,US,C00414972,LEWISVILLE DAM,33.225,-97.8317
625,USC00415158,Norte América,1950-2015,US,C00415158,LAMESA 1 SSE,32.3081,-101.8775
626,USC00415276,Norte América,1950-2015,US,C00415276,KILLEEN,30.5014,-98.7453
627,USC00415284,Norte América,1950-2015,US,C00415284,JOURDANTON,29.8858,-97.6917
628,USC00415828,Norte América,1950-2015,US,C00415828,MARATHON,31.6833,-103.6
629,USC00415915,Norte América,1950-2015,US,C00415915,LIVINGSTON 2 NNE,31.4667,-93.75
630,USC00416136,Norte América,1950-2015,US,C00416136,MORTON,34.2192,-102.7328
631,USC00417079,Norte América,1950-2015,US,C00417079,PATRICIA,34.1892,-101.7022
632,USC00417215,Norte América,1950-2015,US,C00417215,PIERCE 1 E,29.0283,-98.5686
633,USC00417693,Norte América,1950-2015,US,C00417693,RED ROCK,29.5333,-96.5833
634,USC00418583,Norte América,1950-2015,US,C00418583,SEYMOUR 3NW,32.9403,-99.8036
635,USC00418646,Norte América,1950-2015,US,C00418646,SOMERVILLE,31.0372,-97.5283
636,USC00418944,Norte América,1950-2015,US,C00418944,SULPHUR SPRINGS,33.3,-94.1667
637,USC00420400,Norte América,1950-2015,US,C00420400,ANETH PLT,37.8667,-109.3667
638,USC00420700,Norte América,1950-2015,US,C00420700,ALPINE,40.5667,-112.1333
639,USC00421070,Norte América,1950-2015,US,C00421070,BIG WATER,38.5667,-111.8667
640,USC00421259,Norte América,1950-2015,US,C00421259,ALTON,37.7083,-113.1439
641,USC00422101,Norte América,1950-2015,US,C00422101,CLEAR LAKE REFUGE,39.2872,-112.6519
642,USC00423097,Norte América,1950-2015,US,C00423097,COTTONWOOD NURSERY,40.7242,-112.1975
643,USC00423391,Norte América,1950-2015,US,C00423391,CLEAR CREEK,39.35,-111.5167
644,USC00423976,Norte América,1950-2015,US,C00423976,GOBLIN VALLEY SP,37.8667,-110.4
645,USC00424968,Norte América,1950-2015,US,C00424968,GUNLOCK PH,37.2008,-113.2686
646,USC00425034,Norte América,1950-2015,US,C00425034,INTERNATIONAL,40.3833,-111.85
647,USC00425402,Norte América,1950-2015,US,C00425402,LEVAN,39.2583,-111.6306
648,USC00425807,Norte América,1950-2015,US,C00425807,MEXICAN HAT,37.8675,-109.3514
649,USC00426170,Norte América,1950-2015,US,C00426170,MILFORD,37.6667,-113.55
650,USC00426915,Norte América,1950-2015,US,C00426915,OAK CITY,39.5333,-111.3667
651,USC00427606,Norte América,1950-2015,US,C00427606,OGDEN 2,40.7708,-111.8964
652,USC00427835,Norte América,1950-2015,US,C00427835,ROUND VALLEY,39.9167,-112.1333
653,USC00429152,Norte América,1950-2015,US,C00429152,ST GEORGE,38.4831,-113.4264
654,USC00440766,Norte América,1950-2015,US,C00440766,ALTAVISTA,37.2039,-80.4144
655,USC00441691,Norte América,1950-2015,US,C00441691,CATAWBA HOSPITAL,37.1833,-80.3
656,USC00441929,Norte América,1950-2015,US,C00441929,BUCHANAN,37.7333,-78.15
657,USC00442635,Norte América,1950-2015,US,C00442635,DENDRON 1 SW,37.3875,-75.9744
658,USC00443565,Norte América,1950-2015,US,C00443565,FARMVILLE 2 N,37.1756,-78.2786
659,USC00444909,Norte América,1950-2015,US,C00444909,HILLSBORO,39.0878,-77.6928
660,USC00445595,Norte América,1950-2015,US,C00445595,LEE EXP FOREST,38.3064,-79.7197
661,USC00446161,Norte América,1950-2015,US,C00446161,MOLLUSK 1 SW,37.4314,-76.4414
662,USC00446999,Norte América,1950-2015,US,C00446999,PHILPOTT DAM,37.2008,-80.5864
663,USC00447174,Norte América,1950-2015,US,C00447174,OLINGER,37.0947,-81.7936
664,USC00448837,Norte América,1950-2015,US,C00448837,SMITHFIELD,36.5956,-76.4386
665,USC00448894,Norte América,1950-2015,US,C00448894,TANGIER ISLAND,37.9881,-76.7769
666,USC00449181,Norte América,1950-2015,US,C00449181,WASHINGTON 3 SSW,39.1881,-78.1514
667,USC00450564,Norte América,1950-2015,US,C00450564,ANACORTES,48.7833,-122.4833
668,USC00451059,Norte América,1950-2015,US,C00451059,ASHFORD,47.4333,-121.65
669,USC00451276,Norte América,1950-2015,US,C00451276,ABERDEEN,46.72,-122.9528
670,USC00451426,Norte América,1950-2015,US,C00451426,CAMP CRESENT,48.0333,-120.8333
671,USC00451484,Norte América,1950-2015,US,C00451484,BURLINGTON,48.9672,-122.3292
672,USC00452531,Norte América,1950-2015,US,C00452531,CUSHMAN DAM,47.0092,-123.4008
673,USC00454338,Norte América,1950-2015,US,C00454338,KEYSTONE,46.8167,-117.8831
674,USC00454619,Norte América,1950-2015,US,C00454619,INDEX,47.2,-121.4833
675,USC00454769,Norte América,1950-2015,US,C00454769,LONG BEACH EXP STN,46.1506,-122.9164
676,USC00456123,Norte América,1950-2015,US,C00456123,MT SPOKANE,48.4608,-119.5167
677,USC00456553,Norte América,1950-2015,US,C00456553,PASCO,46.5167,-118.3333
678,USC00456763,Norte América,1950-2015,US,C00456763,PACKWOOD,46.2,-119.7667
679,USC00456880,Norte América,1950-2015,US,C00456880,PALMER 3 ESE,47.2236,-119.8525
680,USC00457062,Norte América,1950-2015,US,C00457062,PULLMAN EXP STN,47.1167,-118.4167
681,USC00457538,Norte América,1950-2015,US,C00457538,SAPPHO 8 E,48.0833,-123.1
682,USC00457690,Norte América,1950-2015,US,C00457690,ROSS DAM,48.6833,-121.25
683,USC00459077,Norte América,1950-2015,US,C00459077,TOLT 1 NW,47.3667,-120.3667
684,USC00460844,Norte América,1950-2015,US,C00460844,ALDERSON,38.4,-80.8
685,USC00461083,Norte América,1950-2015,US,C00461083,ALBRIGHT,39.6667,-79.6167
686,USC00462211,Norte América,1950-2015,US,C00462211,COOPERS ROCK SF,39.0981,-79.4322
687,USC00462622,Norte América,1950-2015,US,C00462622,CRANBERRY GLADES,38.1436,-82.3828
688,USC00464200,Norte América,1950-2015,US,C00464200,GLENVILLE,38.6844,-82.1836
689,USC00465341,Norte América,1950-2015,US,C00465341,KINGSTON,38.85,-80.9667
690,USC00465445,Norte América,1950-2015,US,C00465445,LAKE FLOYD,39.2,-80.4167
691,USC00466178,Norte América,1950-2015,US,C00466178,LOST RVR,39.6667,-80.1
692,USC00466952,Norte América,1950-2015,US,C00466952,OMPS,38.9989,-79.1361
693,USC00466996,Norte América,1950-2015,US,C00466996,MULLENS 3 E,38.65,-80.2167
694,USC00467846,Norte América,1950-2015,US,C00467846,RALEIGH,38.65,-81.4667
695,USC00469428,Norte América,1950-2015,US,C00469428,UPPER DAVISSON RUN,39.2,-80.4
696,USC00469527,Norte América,1950-2015,US,C00469527,THURMOND,37.9875,-81.5428
697,USC00470273,Norte América,1950-2015,US,C00470273,AFTON,43.0411,-89.4286
698,USC00470565,Norte América,1950-2015,US,C00470565,AMERY,45.5,-91.8333
699,USC00470855,Norte América,1950-2015,US,C00470855,ALMA DAM 4,44.2903,-90.8539
700,USC00471790,Norte América,1950-2015,US,C00471790,BROOKFIELD,43.3261,-89.0081
701,USC00472041,Norte América,1950-2015,US,C00472041,CORNUCOPIA 3 E,45.2,-92.4
702,USC00472851,Norte América,1950-2015,US,C00472851,EASTON,44.6997,-87.3967
703,USC00474482,Norte América,1950-2015,US,C00474482,JEFFERSON WWTP,43.0803,-88.8967
704,USC00474523,Norte América,1950-2015,US,C00474523,KOEPENICK,45.3333,-88.4981
705,USC00475164,Norte América,1950-2015,US,C00475164,LYNXVILLE DAM 9,44.1747,-90.3483
706,USC00475315,Norte América,1950-2015,US,C00475315,MARKESAN,43.2,-88.1667
707,USC00475352,Norte América,1950-2015,US,C00475352,MANITOWISH WATERS,46.1683,-90.0722
708,USC00475364,Norte América,1950-2015,US,C00475364,MARINETTE,45.1786,-89.6617
709,USC00476200,Norte América,1950-2015,US,C00476200,NEW HOLSTEIN,43.1003,-88.5036
710,USC00476523,Norte América,1950-2015,US,C00476523,OSCEOLA,45.6167,-90.3667
711,USC00477016,Norte América,1950-2015,US,C00477016,PEPIN,43.4797,-90.6933
712,USC00477115,Norte América,1950-2015,US,C00477115,PLUM ISLAND,45.6528,-89.3075
713,USC00477207,Norte América,1950-2015,US,C00477207,ROSIERE,43.85,-88.8167
714,USC00477230,Norte América,1950-2015,US,C00477230,ROBERTS WWTP,44.9708,-92.562
715,USC00477792,Norte América,1950-2015,US,C00477792,SAUK CITY WWTP,43.1,-87.9
716,USC00478018,Norte América,1950-2015,US,C00478018,SAXON 1WSW,45.4567,-89.9692
717,USC00478190,Norte América,1950-2015,US,C00478190,ST GERMAIN,44.87,-88.9044
718,USC00479053,Norte América,1950-2015,US,C00479053,WALWORTH CO SEWER DIST,43.4319,-88.1606
719,USC00479218,Norte América,1950-2015,US,C00479218,UPSON,44.7314,-90.7217
720,USC00480603,Norte América,1950-2015,US,C00480603,AFTON,42.8733,-110.9075
721,USC00481167,Norte América,1950-2015,US,C00481167,ARAPAHOE RCH,44.3317,-106.7983
722,USC00481845,Norte América,1950-2015,US,C00481845,BUFFALO BILL DAM,44.5167,-109.05
723,USC00482465,Norte América,1950-2015,US,C00482465,CAMBRIA,44.5833,-104.7167
724,USC00482595,Norte América,1950-2015,US,C00482595,CORA,43.2336,-108.9133
725,USC00483396,Norte América,1950-2015,US,C00483396,EVANSTON 1 E,41.8183,-110.0564
726,USC00483865,Norte América,1950-2015,US,C00483865,FOUR CORNERS 5 NW,44.0833,-105.7167
727,USC00486000,Norte América,1950-2015,US,C00486000,LA GRANGE,42.2167,-105.9333
728,USC00487330,Norte América,1950-2015,US,C00487330,OLD FT LARAMIE,41.2,-105.3833
729,USC00488095,Norte América,1950-2015,US,C00488095,REDBIRD,42.75,-105.0
730,USC00488758,Norte América,1950-2015,US,C00488758,SNAKE RIVER,44.0761,-108.9547
731,USC00488983,Norte América,1950-2015,US,C00488983,SHERMAN,42.3,-105.65
732,USC00501240,Norte América,1950-2015,US,C00501240,CHICKALOON,61.0183,-147.5147
733,USC00502252,Norte América,1950-2015,US,C00502252,CANYON ISLAND,62.95,-143.3
734,USC00502642,Norte América,1950-2015,US,C00502642,FORT LISCUM,61.2344,-149.2708
735,USC00503667,Norte América,1950-2015,US,C00503667,GRAYLING,59.6408,-151.54
736,USC00505770,Norte América,1950-2015,US,C00505770,MAC LEOD HARBOR,62.9583,-155.5903
737,USC00508785,Norte América,1950-2015,US,C00508785,TAHNETA PASS,62.1667,-161.8333
738,USC00511170,Norte América,1950-2015,US,C00511170,HALEHAKU 492.2,22.0833,-159.4667
739,USC00513300,Norte América,1950-2015,US,C00513300,KAUMANA 88.1,19.2753,-155.4514
740,USC00514829,Norte América,1950-2015,US,C00514829,KULA BRANCH STN 324.5,21.53,-157.8503
741,USC00515761,Norte América,1950-2015,US,C00515761,MAPULEHU 542,19.9742,-155.5481
742,USC00517541,Norte América,1950-2015,US,C00517541,OPAEULA 870,19.35,-155.8833
743,USC00519275,Norte América,1950-2015,US,C00519275,WAIAHI LOWER 1054,20.9158,-156.5094
744,USR0000ABCA,Norte América,1950-2015,US,R0000ABCA,ANIAK AP,58.4067,-152.8864
745,USR0000AHOM,Norte América,1950-2015,US,R0000AHOM,ILIAMNA AP,59.7458,-151.2083
746,USR0000AROO,Norte América,1950-2015,US,R0000AROO,MORMON LAKE ARIZONA,33.655,-111.1333
747,USR0000ASES,Norte América,1950-2015,US,R0000ASES,SELLES ARIZONA,31.91,-111.8975
748,USR0000CBRK,Norte América,1950-2015,US,R0000CBRK,BEAR VALLEY CALIFORNIA,36.0931,-118.2603
749,USR0000CBUC,Norte América,1950-2015,US,R0000CBUC,BATTERSON CALIFORNIA,37.8233,-120.0975
750,USR0000CCSH,Norte América,1950-2015,US,R0000CCSH,BALD MTN LOC CALIFORNIA,40.0017,-120.915
751,USR0000CFSL,Norte América,1950-2015,US,R0000CFSL,CRANE FLAT LOOKOUT CALIFORNIA,37.4783,-118.4078
752,USR0000CHAY,Norte América,1950-2015,US,R0000CHAY,GASQUET CALIFORNIA,40.55,-123.165
753,USR0000CLEO,Norte América,1950-2015,US,R0000CLEO,LEO CARRILLO CALIFORNIA,34.0456,-118.9358
754,USR0000CLVR,Norte América,1950-2015,US,R0000CLVR,LOS ALTOS CALIFORNIA,37.7119,-121.8136
755,USR0000CMEA,Norte América,1950-2015,US,R0000CMEA,JUNIPER FLAT CALIFORNIA,34.3906,-116.5169
756,USR0000CPRD,Norte América,1950-2015,US,R0000CPRD,OAKLAND NORTH CALIFORNIA,36.7269,-120.7658
757,USR0000GBRA,Norte América,1950-2015,US,R0000GBRA,BRASSTOWN #1 GEORGIA,34.8028,-83.71
758,USR0000GMCR,Norte América,1950-2015,US,R0000GMCR,MILLEDGEVILLE GEORGIA,32.0097,-82.9
759,USR0000IBEA,Norte América,1950-2015,US,R0000IBEA,BANNER SUMMIT IDAHO,44.385,-115.55
760,USR0000IDES,Norte América,1950-2015,US,R0000IDES,DESOTO IOWA,41.5333,-96.0833
761,USR0000KKYL,Norte América,1950-2015,US,R0000KKYL,KYLBL KENTUCKY,36.7764,-88.0631
762,USR0000MBRE,Norte América,1950-2015,US,R0000MBRE,ANTELOPE MONTANA,44.9667,-113.2167
763,USR0000NLEX,Norte América,1950-2015,US,R0000NLEX,LEXINGTON NORTH CAROLINA,35.7922,-80.312
764,USR0000OBMN,Norte América,1950-2015,US,R0000OBMN,BILLY MEADOWS OREGON,45.595,-118.235
765,USR0000OEMI,Norte América,1950-2015,US,R0000OEMI,ELKTON OREGON,43.4675,-122.2175
766,USR0000OLAW,Norte América,1950-2015,US,R0000OLAW,King Mountain,42.4167,-124.1333
767,USR0000OPOI,Norte América,1950-2015,US,R0000OPOI,ROBERTS BUTTE OREGON,45.3719,-117.7022
768,USR0000TCOK,Norte América,1950-2015,US,R0000TCOK,CHUCK SWAN SF TENNESSEE,36.28,-84.275
769,USS0003E05S,Norte América,1950-2015,US,S0003E05S,MT. RUSHMORE SOUTH DAKOTA,44.21,-103.79
770,USS0005M07S,Norte América,1950-2015,US,S0005M07S,BIG HORN COLORADO,37.33,-105.07
771,USS0006H27S,Norte América,1950-2015,US,S0006H27S,Med Bow,41.38,-106.35
772,USS0006N14S,Norte América,1950-2015,US,S0006N14S,Bateman,36.72,-106.26
773,USS0007E23S,Norte América,1950-2015,US,S0007E23S,Sucker Creek,44.5,-107.43
774,USS0009D21S,Norte América,1950-2015,US,S0009D21S,BIGHORN MOUNTAIN MONTANA,45.24,-109.46
775,USS0009G03S,Norte América,1950-2015,US,S0009G03S,Granite Creek,42.87,-109.09
776,USS0009L03S,Norte América,1950-2015,US,S0009L03S,Lasal Mountain-Lower,38.48,-109.27
777,USS0009S18S,Norte América,1950-2015,US,S0009S18S,STRAY HORSE ARIZONA,33.76,-109.48
778,USS0011P02S,Norte América,1950-2015,US,S0011P02S,DRY PARK ARIZONA,35.27,-111.74
779,USS0013A24S,Norte América,1950-2015,US,S0013A24S,CONDON WORK CENTER MONTANA,48.43,-113.94
780,USS0013C38S,Norte América,1950-2015,US,S0013C38S,LINCOLN MONTANA,46.88,-113.32
781,USS0013G01S,Norte América,1950-2015,US,S0013G01S,LAKE HILLS IDAHO,42.32,-113.62
782,USS0015B02S,Norte América,1950-2015,US,S0015B02S,LEWISTON NEZ PERCE CO AP,47.46,-115.71
783,USS0015J01S,Norte América,1950-2015,US,S0015J01S,CATTLE CAMP NEVADA,40.89,-115.2
784,USS0018E16S,Norte América,1950-2015,US,S0018E16S,BOARD CREEK OREGON,44.25,-118.52
785,USS0021B20S,Norte América,1950-2015,US,S0021B20S,Trough,47.33,-121.47
786,USS0021C13S,Norte América,1950-2015,US,S0021C13S,Satus Pass,46.09,-121.76
787,USS0051R01S,Norte América,1950-2015,US,S0051R01S,BEAVER (WBQ) ALASKA,66.92,-151.53
788,USW00003047,Norte América,1950-2015,US,W00003047,MIDLAND TEXAS,31.6219,-102.8072
789,USW00003178,Norte América,1950-2015,US,W00003178,RANCHITA CALIFORNIA,32.5722,-116.9794
790,USW00003820,Norte América,1950-2015,US,W00003820,AUGUSTA BUSH FLD AP,33.3644,-81.9633
791,USW00003838,Norte América,1950-2015,US,W00003838,VANDALIA FAA AP,38.9833,-89.1667
792,USW00003855,Norte América,1950-2015,US,W00003855,NAVAL LIVE OAKS FLORIDA,30.35,-87.3167
793,USW00003888,Norte América,1950-2015,US,W00003888,ARMUCHEE #1 GEORGIA,33.7792,-84.5214
794,USW00003936,Norte América,1950-2015,US,W00003936,MANHATTAN MUNI AP,39.1353,-96.6778
795,USW00003963,Norte América,1950-2015,US,W00003963,MACKS CREEK MISSOURI,38.5911,-92.1558
796,USW00003974,Norte América,1950-2015,US,W00003974,WICHITA MCCONNELL AFB,37.7461,-97.2211
797,USW00004836,Norte América,1950-2015,US,W00004836,FRENCHVILLE AROOSTOOK AP,47.2856,-68.3133
798,USW00004840,Norte América,1950-2015,US,W00004840,FOND DU LAC CO AP,43.77,-88.4864
799,USW00004852,Norte América,1950-2015,US,W00004852,WOOSTER WAYNE CO AP,40.4719,-81.4236
800,USW00012834,Norte América,1950-2015,US,W00012834,CENTRAL FLORIDA,29.1828,-81.0483
801,USW00012841,Norte América,1950-2015,US,W00012841,PUNTA GORDA CHARLOTTE CO AP,28.5453,-81.3331
802,USW00012873,Norte América,1950-2015,US,W00012873,TAMPA INTL AP,27.9106,-82.6875
803,USW00012884,Norte América,1950-2015,US,W00012884,BIG BRANCH NWR LOUISIANA,29.3331,-89.4075
804,USW00012917,Norte América,1950-2015,US,W00012917,SAN BERNARD TEXAS,29.9506,-94.0206
805,USW00012919,Norte América,1950-2015,US,W00012919,BROWNSVILLE,25.9156,-97.4186
806,USW00012926,Norte América,1950-2015,US,W00012926,CORPUS CHRISTI,27.6833,-97.2833
807,USW00012945,Norte América,1950-2015,US,W00012945,HOUSTON HOBBY AP,29.7667,-95.3667
808,USW00013733,Norte América,1950-2015,US,W00013733,DANVILLE RGNL AP,37.3208,-79.2067
809,USW00013736,Norte América,1950-2015,US,W00013736,MARTINSBURG E WV RGNL AP,39.6428,-79.9164
810,USW00013743,Norte América,1950-2015,US,W00013743,WASHINGTON REAGAN AP,38.8483,-77.0342
811,USW00013748,Norte América,1950-2015,US,W00013748,WILMINGTON INTL AP,34.2675,-77.8997
812,USW00013752,Norte América,1950-2015,US,W00013752,ABERDEEN PHILLIPS FLD,38.9833,-76.4667
813,USW00013753,Norte América,1950-2015,US,W00013753,ATLANTIC CITY,39.45,-74.5833
814,USW00013781,Norte América,1950-2015,US,W00013781,WILMINGTON NEW CASTLE CO AP,39.6728,-75.6008
815,USW00013782,Norte América,1950-2015,US,W00013782,CHARLESTON NAS,32.78,-79.9319
816,USW00013810,Norte América,1950-2015,US,W00013810,LOUISVILLE BOWMAN FLD,38.2281,-85.6636
817,USW00013824,Norte América,1950-2015,US,W00013824,SAVANNAH INTL AP,32.0167,-81.1333
818,USW00013866,Norte América,1950-2015,US,W00013866,BLUEFIELD MERCER CO AP,38.3794,-81.59
819,USW00013867,Norte América,1950-2015,US,W00013867,PARKERSBURG WOOD CO AP,39.2811,-81.5572
820,USW00013872,Norte América,1950-2015,US,W00013872,CHEOAH NORTH CAROLINA,35.5953,-82.5567
821,USW00013883,Norte América,1950-2015,US,W00013883,EASTOVER MCENTIRE ANG,33.9486,-81.1186
822,USW00013891,Norte América,1950-2015,US,W00013891,INDIAN GRAVE TENNESSEE,35.8181,-83.9858
823,USW00013894,Norte América,1950-2015,US,W00013894,MOBILE DWTN AP,30.6794,-88.2397
824,USW00013897,Norte América,1950-2015,US,W00013897,LAFAYETTE WORK CENTER TENNESS,36.1189,-86.6892
825,USW00013907,Norte América,1950-2015,US,W00013907,DALLAS LOVE FLD,32.75,-96.9667
826,USW00013919,Norte América,1950-2015,US,W00013919,OKLAHOMA CITY TINKER AFB,35.4167,-97.3833
827,USW00013928,Norte América,1950-2015,US,W00013928,ROBERT GRAY AAF,31.6333,-97.0667
828,USW00013944,Norte América,1950-2015,US,W00013944,VERNON LOUISIANA,32.5,-93.6667
829,USW00013956,Norte América,1950-2015,US,W00013956,MARION MISSISSIPPI,32.3333,-90.2333
830,USW00013962,Norte América,1950-2015,US,W00013962,ABILENE DYESS AFB,32.4106,-99.6822
831,USW00013963,Norte América,1950-2015,US,W00013963,LITTLE ROCK AP ADAMS FLD,34.7272,-92.2389
832,USW00013964,Norte América,1950-2015,US,W00013964,FT SMITH RGNL AP,35.3331,-94.3625
833,USW00013966,Norte América,1950-2015,US,W00013966,TERRELL MUNI AP,33.9786,-98.4928
834,USW00013976,Norte América,1950-2015,US,W00013976,LAKE CHARLES CHENAULT,30.205,-91.9875
835,USW00013985,Norte América,1950-2015,US,W00013985,CIMARRON KANSAS,37.7608,-99.9683
836,USW00013987,Norte América,1950-2015,US,W00013987,MT. VERNON MISSOURI,37.1467,-94.5022
837,USW00013988,Norte América,1950-2015,US,W00013988,KANSAS CITY INTL AP,39.1208,-94.5969
838,USW00014717,Norte América,1950-2015,US,W00014717,GANG MILLS NEW YORK,43.2333,-75.4
839,USW00014742,Norte América,1950-2015,US,W00014742,BURLINGTON INTL AP,44.4683,-73.15
840,USW00014745,Norte América,1950-2015,US,W00014745,CONCORD MUNI AP,43.1953,-71.5011
841,USW00014750,Norte América,1950-2015,US,W00014750,GLENS FALLS AP,43.35,-73.6167
842,USW00014751,Norte América,1950-2015,US,W00014751,MIDDLETOWN HARRISBURG INTL AP,40.2172,-76.8514
843,USW00014755,Norte América,1950-2015,US,W00014755,MT WASHINGTON,44.2667,-71.2994
844,USW00014765,Norte América,1950-2015,US,W00014765,PROVIDENCE T F GREEN AP,41.7219,-71.4325
845,USW00014770,Norte América,1950-2015,US,W00014770,PHILIPSBURG 8 E,40.8206,-76.8642
846,USW00014790,Norte América,1950-2015,US,W00014790,MAYNARD,42.15,-70.9333
847,USW00014808,Norte América,1950-2015,US,W00014808,MIO MICHIGAN,44.45,-83.4
848,USW00014814,Norte América,1950-2015,US,W00014814,ALPENA WWTP,45.0606,-83.4281
849,USW00014820,Norte América,1950-2015,US,W00014820,CLEVELAND BURKE AP,41.4131,-81.86
850,USW00014821,Norte América,1950-2015,US,W00014821,COLUMBUS OHIO STATE UNIV AP,39.9914,-82.8808
851,USW00014827,Norte América,1950-2015,US,W00014827,FT WAYNE BAER FLD,40.9706,-85.2064
852,USW00014838,Norte América,1950-2015,US,W00014838,MARQUETTE,46.5458,-87.3794
853,USW00014847,Norte América,1950-2015,US,W00014847,SAULT STE MARIE SANDERSON FLD,46.4794,-84.3572
854,USW00014848,Norte América,1950-2015,US,W00014848,SOUTH BEND MICHIANA RGNL AP,41.7072,-86.3164
855,USW00014849,Norte América,1950-2015,US,W00014849,TOLEDO METCALF FLD,41.5667,-83.4667
856,USW00014852,Norte América,1950-2015,US,W00014852,PERRY CAA AP,41.2544,-80.6739
857,USW00014853,Norte América,1950-2015,US,W00014853,ADRIAN LENAWEE CO AP,42.2333,-83.5333
858,USW00014857,Norte América,1950-2015,US,W00014857,MUSKEGON CO AP,44.7167,-85.55
859,USW00014860,Norte América,1950-2015,US,W00014860,ERIE PENNSYLVANIA,42.08,-80.1825
860,USW00014861,Norte América,1950-2015,US,W00014861,PITTSBURGH ALLEGHENY CO AP,40.45,-80.0
861,USW00014874,Norte América,1950-2015,US,W00014874,PEORIA GTR PEORIA AP,40.7167,-89.6
862,USW00014892,Norte América,1950-2015,US,W00014892,CHICAGO AURORA MUNI AP,41.7833,-87.6
863,USW00014913,Norte América,1950-2015,US,W00014913,BRAINERD MINNESOTA,46.8369,-92.2097
864,USW00014916,Norte América,1950-2015,US,W00014916,DEVILS LAKE NORTH DAKOTA,47.9428,-97.1839
865,USW00014919,Norte América,1950-2015,US,W00014919,FARGO HECTOR INTL AP,46.9258,-98.6692
866,USW00014923,Norte América,1950-2015,US,W00014923,MOLINE QUAD CITY INTL AP,41.4653,-90.5233
867,USW00014927,Norte América,1950-2015,US,W00014927,ST PAUL DOWNTOWN AP,44.9319,-93.0556
868,USW00014929,Norte América,1950-2015,US,W00014929,ABERDEEN,45.4558,-98.4131
869,USW00014936,Norte América,1950-2015,US,W00014936,HURON RGNL AP,44.3981,-98.2231
870,USW00014943,Norte América,1950-2015,US,W00014943,SIOUX CITY GATEWAY AP,42.3914,-96.3792
871,USW00014944,Norte América,1950-2015,US,W00014944,SIOUX FALLS 14 NNE,43.5878,-96.7289
872,USW00014947,Norte América,1950-2015,US,W00014947,MINNEAPOLIS/ST PAUL AP,44.8833,-93.2167
873,USW00014995,Norte América,1950-2015,US,W00014995,GLIDDEN WISCONSIN,45.7728,-92.6886
874,USW00022010,Norte América,1950-2015,US,W00022010,HONDO AFB,29.3783,-100.9269
875,USW00022504,Norte América,1950-2015,US,W00022504,HICKAM AFB,21.3333,-157.95
876,USW00023007,Norte América,1950-2015,US,W00023007,CHILDRESS MUNI AP,34.4272,-100.2831
877,USW00023034,Norte América,1950-2015,US,W00023034,MASON TEXAS,31.3711,-100.4922
878,USW00023042,Norte América,1950-2015,US,W00023042,LUBBOCK,33.6542,-101.8136
879,USW00023043,Norte América,1950-2015,US,W00023043,ROSWELL MUNI AP,33.4,-104.5333
880,USW00023044,Norte América,1950-2015,US,W00023044,EL PASO INTL AP,31.8111,-106.3758
881,USW00023047,Norte América,1950-2015,US,W00023047,AMARILLO,35.2333,-101.7089
882,USW00023050,Norte América,1950-2015,US,W00023050,ALBUQUERQUE INTL AP,35.0419,-106.6156
883,USW00023065,Norte América,1950-2015,US,W00023065,GOODLAND,39.3669,-101.7
884,USW00023066,Norte América,1950-2015,US,W00023066,GRAND JUNCTION 9 W,39.1342,-108.54
885,USW00023068,Norte América,1950-2015,US,W00023068,PINION CANYON COLORADO,38.2725,-104.6089
886,USW00023070,Norte América,1950-2015,US,W00023070,TRINIDAD PERRY STOKES AP,37.2622,-104.3378
887,USW00023118,Norte América,1950-2015,US,W00023118,Summit Lk,39.6667,-119.8667
888,USW00023169,Norte América,1950-2015,US,W00023169,KANE SPRINGS NEVADA,36.0719,-115.1633
889,USW00023199,Norte América,1950-2015,US,W00023199,FISH CREEK MTN CALIFORNIA,32.8167,-115.6833
890,USW00023234,Norte América,1950-2015,US,W00023234,SAN FRANCISCO DWTN,37.6197,-122.3647
891,USW00023906,Norte América,1950-2015,US,W00023906,VICTORIA TEXAS,28.3044,-96.8231
892,USW00024018,Norte América,1950-2015,US,W00024018,DODGE CREEK WYOMING,41.1519,-104.8061
893,USW00024020,Norte América,1950-2015,US,W00024020,GRAND ISLAND AP,40.5233,-101.0344
894,USW00024025,Norte América,1950-2015,US,W00024025,PIERRE RGNL AP,44.3814,-100.2856
895,USW00024028,Norte América,1950-2015,US,W00024028,SCOTTS BLUFF NEBRASKA,41.8706,-103.5931
896,USW00024032,Norte América,1950-2015,US,W00024032,VALENTINE NEBRASKA,42.8783,-100.55
897,USW00024089,Norte América,1950-2015,US,W00024089,CAMP CREEK WYOMING,42.8975,-106.4636
898,USW00024114,Norte América,1950-2015,US,W00024114,COLUMBIA NWR WASHINGTON,47.6333,-117.65
899,USW00024157,Norte América,1950-2015,US,W00024157,SPOKANE 17 SSW,47.6217,-117.5281
900,USW00024160,Norte América,1950-2015,US,W00024160,Touchet,46.0947,-118.2869
901,USW00024252,Norte América,1950-2015,US,W00024252,PORT ANGELES INTL AP,47.95,-124.5333
902,USW00024253,Norte América,1950-2015,US,W00024253,Mount Crag,47.2333,-123.1333
903,USW00025308,Norte América,1950-2015,US,W00025308,ANNETTE ISLAND AP,55.0389,-131.5786
904,USW00025713,Norte América,1950-2015,US,W00025713,ST GEORGE ISLAND AP,57.1553,-170.2222
905,USW00026534,Norte América,1950-2015,US,W00026534,STONEY RIVER ALASKA,61.1,-155.5833
906,USW00026616,Norte América,1950-2015,US,W00026616,HAYCOCK ALASKA,66.8667,-162.6333
907,USW00053850,Norte América,1950-2015,US,W00053850,ANDREW PICKENS SOUTH CAROLINA,34.6719,-82.8864
908,USW00053868,Norte América,1950-2015,US,W00053868,OAK RIDGE ATDD,36.0236,-84.2375
909,USW00053870,Norte América,1950-2015,US,W00053870,FORT BRAGG NORTH CAROLINA,35.1967,-81.1558
910,USW00053875,Norte América,1950-2015,US,W00053875,CHATTANOOGA LOVELL AP,35.0667,-85.3
911,USW00053904,Norte América,1950-2015,US,W00053904,SULLIVAN MISSOURI,38.9286,-90.4281
912,USW00053912,Norte América,1950-2015,US,W00053912,BASTROP TEXAS,32.0311,-96.3989
913,USW00053917,Norte América,1950-2015,US,W00053917,SLIDELL AP,30.0494,-90.0289
914,USW00053926,Norte América,1950-2015,US,W00053926,STILLWATER RGNL AP,36.1181,-97.0914
915,USW00053961,Norte América,1950-2015,US,W00053961,KISATCHIE - FTS LOUISIANA,32.8833,-92.1164
916,USW00054757,Norte América,1950-2015,US,W00054757,NIAGARA FALLS INTL AP,42.1094,-77.9919
917,USW00054772,Norte América,1950-2015,US,W00054772,BRUNSWICK NAS,43.9906,-70.9475
918,USW00054778,Norte América,1950-2015,US,W00054778,SHERBURNE NEW YORK,42.6425,-77.0564
919,USW00054793,Norte América,1950-2015,US,W00054793,NEWARK INTL AP,41.2003,-74.6231
920,USW00054851,Norte América,1950-2015,US,W00054851,AKRON FULTON INTL AP,40.3667,-81.7828
921,USW00054902,Norte América,1950-2015,US,W00054902,DAVENPORT L&D 15,41.5561,-93.2856
922,USW00054932,Norte América,1950-2015,US,W00054932,SAGINAW MINNESOTA,46.1136,-92.9936
923,USW00063831,Norte América,1950-2015,US,W00063831,MERIDIAN NAAS,32.3378,-89.0703
924,USW00063856,Norte América,1950-2015,US,W00063856,BAXLEY GEORGIA,30.8078,-81.4597
925,USW00063857,Norte América,1950-2015,US,W00063857,LIRI ALABAMA,34.285,-85.9622
926,USW00063858,Norte América,1950-2015,US,W00063858,OAKMULGEE ALABAMA,32.4567,-87.2422
927,USW00063867,Norte América,1950-2015,US,W00063867,HUNTSVILLE INTL AP,34.1953,-86.7964
928,USW00079762,Norte América,1950-2015,US,W00079762,SPRINGFIELD,37.2,-93.3
929,USW00093065,Norte América,1950-2015,US,W00093065,COLORADO SPRINGS MUNI AP,38.9667,-104.8167
930,USW00093206,Norte América,1950-2015,US,W00093206,PARKFIELD CALIFORNIA,35.2372,-120.6414
931,USW00093720,Norte América,1950-2015,US,W00093720,ST INIGOES WEBSTER NOLF,38.3406,-75.5103
932,USW00093729,Norte América,1950-2015,US,W00093729,BEAUFORT NORTH CAROLINA,35.2325,-75.6219
933,USW00093732,Norte América,1950-2015,US,W00093732,MITCHELL FLD,39.8,-72.6667
934,USW00093739,Norte América,1950-2015,US,W00093739,RICHMOND INTL AP,37.9406,-75.4631
935,USW00093741,Norte América,1950-2015,US,W00093741,NORFOLK INTL AP,37.1319,-76.493
936,USW00093805,Norte América,1950-2015,US,W00093805,SUMATRA FLORIDA,30.3975,-84.3289
937,USW00093814,Norte América,1950-2015,US,W00093814,CRITTENDEN KENTUCKY,39.0431,-84.6717
938,USW00093815,Norte América,1950-2015,US,W00093815,LIMA ALLEN CO AP,39.9061,-84.2186
939,USW00093817,Norte América,1950-2015,US,W00093817,EVANSVILLE REGIONAL AP,38.0442,-87.5206
940,USW00093819,Norte América,1950-2015,US,W00093819,BLOOMINGTON MONROE CO AP,39.7075,-86.2803
941,USW00093820,Norte América,1950-2015,US,W00093820,TRIANGLE MTN KENTUCKY,38.0408,-84.6058
942,USW00093832,Norte América,1950-2015,US,W00093832,JACKSONVILLE,30.2167,-81.8833
943,USW00093839,Norte América,1950-2015,US,W00093839,MERIWETHER LEWIS TENNESSEE,35.3447,-89.8733
944,USW00093842,Norte América,1950-2015,US,W00093842,FT BENNING MCKENNA,32.5161,-84.9422
945,USW00093987,Norte América,1950-2015,US,W00093987,LUFKIN TEXAS,31.2361,-94.7544
946,USW00093989,Norte América,1950-2015,US,W00093989,QUINCY RGNL AP,39.9369,-91.1919
947,USW00094014,Norte América,1950-2015,US,W00094014,WILLISTON SLOULIN INTL AP,48.1739,-103.6367
948,USW00094075,Norte América,1950-2015,US,W00094075,Copeland Lake,40.0353,-105.5408
949,USW00094080,Norte América,1950-2015,US,W00094080,SAND CREEK NORTH DAKOTA,46.8947,-103.3769
950,USW00094104,Norte América,1950-2015,US,W00094104,GALENA MONTANA,46.5833,-112.0333
951,USW00094623,Norte América,1950-2015,US,W00094623,RACHEL CARSON MAINE,43.9636,-69.7117
952,USW00094701,Norte América,1950-2015,US,W00094701,AYER,42.35,-71.0667
953,USW00094702,Norte América,1950-2015,US,W00094702,BRIDGEPORT SIKORSKY MEM AP,41.1583,-73.1289
954,USW00094704,Norte América,1950-2015,US,W00094704,BUFFALO,42.5708,-77.7133
955,USW00094732,Norte América,1950-2015,US,W00094732,PHILADELPHIA NAAS,40.0819,-75.0111
956,USW00094811,Norte América,1950-2015,US,W00094811,KENOSHA RGNL AP,43.1333,-89.3333
957,USW00094817,Norte América,1950-2015,US,W00094817,MT CLEMENS ANG BASE,42.665,-83.4181
958,USW00094860,Norte América,1950-2015,US,W00094860,HOLLAND TULIP CITY AP,42.8939,-85.5447
959,USW00094918,Norte América,1950-2015,US,W00094918,NORFOLK KARL STEFAN AP,41.3536,-96.0233
960,USW00094958,Norte América,1950-2015,US,W00094958,NORTH PLATTE RGNL AP,41.6236,-98.9517
961,USW00094988,Norte América,1950-2015,US,W00094988,MASON CITY MUNI AP,42.1128,-92.9175
962,USW00094996,Norte América,1950-2015,US,W00094996,LINCOLN AFB,40.6953,-96.8542
963,USW00096404,Norte América,1950-2015,US,W00096404,T LAKE ALASKA,62.7369,-141.2083
0,BKM00014654,Europa,1970-2015,BK,M00014654,SARAJEVO,43.8667,18.4331
1,BKM00014654,Europa,1970-2015,BK,M00014654,SARAJEVO,43.8667,18.4331
2,BKM00014654,Europa,1970-2015,BK,M00014654,SARAJEVO,43.8667,18.4331
3,BKM00014654,Europa,1970-2015,BK,M00014654,SARAJEVO,43.8667,18.4331
4,BKM00014654,Europa,1970-2015,BK,M00014654,SARAJEVO,43.8667,18.4331
5,BKM00014654,Europa,1970-2015,BK,M00014654,SARAJEVO,43.8667,18.4331
6,BKM00014654,Europa,1970-2015,BK,M00014654,SARAJEVO,43.8667,18.4331
7,BKM00014654,Europa,1970-2015,BK,M00014654,SARAJEVO,43.8667,18.4331
8,BKM00014654,Europa,1970-2015,BK,M00014654,SARAJEVO,43.8667,18.4331
9,BKM00014654,Europa,1970-2015,BK,M00014654,SARAJEVO,43.8667,18.4331
10,BKM00014654,Europa,1970-2015,BK,M00014654,SARAJEVO,43.8667,18.4331
11,FI000002963,Europa,1970-2015,FI,000002963,HELSINKI KAISANIEMI AWS,60.8139,23.5006
12,FI000002963,Europa,1970-2015,FI,000002963,HELSINKI KAISANIEMI AWS,60.8139,23.5006
13,FI000002963,Europa,1970-2015,FI,000002963,HELSINKI KAISANIEMI AWS,60.8139,23.5006
14,FI000002963,Europa,1970-2015,FI,000002963,HELSINKI KAISANIEMI AWS,60.8139,23.5006
15,FI000002963,Europa,1970-2015,FI,000002963,HELSINKI KAISANIEMI AWS,60.8139,23.5006
16,FI000002963,Europa,1970-2015,FI,000002963,HELSINKI KAISANIEMI AWS,60.8139,23.5006
17,FI000002963,Europa,1970-2015,FI,000002963,HELSINKI KAISANIEMI AWS,60.8139,23.5006
18,FI000002963,Europa,1970-2015,FI,000002963,HELSINKI KAISANIEMI AWS,60.8139,23.5006
19,FI000002963,Europa,1970-2015,FI,000002963,HELSINKI KAISANIEMI AWS,60.8139,23.5006
20,FI000002963,Europa,1970-2015,FI,000002963,HELSINKI KAISANIEMI AWS,60.8139,23.5006
21,FI000002963,Europa,1970-2015,FI,000002963,HELSINKI KAISANIEMI AWS,60.8139,23.5006
22,FI000007501,Europa,1970-2015,FI,000007501,SODANKYLA AWS,67.3678,26.6328
23,FI000007501,Europa,1970-2015,FI,000007501,SODANKYLA AWS,67.3678,26.6328
24,FI000007501,Europa,1970-2015,FI,000007501,SODANKYLA AWS,67.3678,26.6328
25,FI000007501,Europa,1970-2015,FI,000007501,SODANKYLA AWS,67.3678,26.6328
26,FI000007501,Europa,1970-2015,FI,000007501,SODANKYLA AWS,67.3678,26.6328
27,FI000007501,Europa,1970-2015,FI,000007501,SODANKYLA AWS,67.3678,26.6328
28,FI000007501,Europa,1970-2015,FI,000007501,SODANKYLA AWS,67.3678,26.6328
29,FI000007501,Europa,1970-2015,FI,000007501,SODANKYLA AWS,67.3678,26.6328
30,FI000007501,Europa,1970-2015,FI,000007501,SODANKYLA AWS,67.3678,26.6328
31,FI000007501,Europa,1970-2015,FI,000007501,SODANKYLA AWS,67.3678,26.6328
32,FI000007501,Europa,1970-2015,FI,000007501,SODANKYLA AWS,67.3678,26.6328
33,FIE00141994,Europa,1970-2015,FI,E00141994,HANKO TULLINIEMI,59.8083,22.9156
34,FIE00141994,Europa,1970-2015,FI,E00141994,HANKO TULLINIEMI,59.8083,22.9156
